[{"id":"8ae0d54e-f601-43fb-9d38-489a05807c50","name":"Spinka, Herman and Boehm","lat":"47.6849","lon":"-122.2968","state":"Washington","zip":"98115","city":"Seattle","address":"67 American Ash Pass","hours":"5:03 AM","beers":71},
  {
    "id": "0e805dd9-10a3-4470-bf17-51833ba3a684",
    "name": "Wiegand, Watsica and Keeling",
    "lat": "47.0662",
    "lon": "-122.1132",
    "state": "Washington",
    "zip": "98411",
    "city": "Tacoma",
    "address": "26 Kennedy Way",
    "hours": "10:05 PM",
    "beers": 45
  },
{"id":"656d1c00-2238-425e-a4ed-5f2ebc7db800","name":"Spencer Group","lat":"47.6849","lon":"-122.2968","state":"Washington","zip":"98115","city":"Seattle","address":"5 Sunfield Crossing","hours":"10:26 AM","beers":88},
{"id":"2dabfb15-af87-4907-a197-5087905d2f1c","name":"Boehm LLC","lat":"47.4323","lon":"-121.8034","state":"Washington","zip":"98140","city":"Seattle","address":"05 Service Terrace","hours":"11:49 PM","beers":73},
{"id":"b2ef94ca-b3d5-4843-bc39-985eef075ee5","name":"Collins Inc","lat":"47.2325","lon":"-122.3594","state":"Washington","zip":"98424","city":"Tacoma","address":"700 Corben Court","hours":"12:21 PM","beers":68},
{"id":"4d603ba0-559a-4e70-b1c3-07f4fa12866b","name":"Schamberger, Howe and Berge","lat":"47.6151","lon":"-122.3447","state":"Washington","zip":"98121","city":"Seattle","address":"50371 Roxbury Junction","hours":"6:17 AM","beers":29},
{"id":"dae25f7c-c238-4493-9248-63fda3ddbd13","name":"Powlowski-Bechtelar","lat":"47.6564","lon":"-122.3048","state":"Washington","zip":"98195","city":"Seattle","address":"3963 Warner Alley","hours":"8:18 AM","beers":92},
{"id":"e6cd63d9-8671-44e7-a64e-c6dcf82f67d2","name":"Walsh-Beer","lat":"47.1591","lon":"-122.5485","state":"Washington","zip":"98498","city":"Lakewood","address":"690 6th Alley","hours":"9:03 PM","beers":14},
{"id":"d28b9c18-f0ea-4c0c-9a7f-6b0d38a818c6","name":"Torp Group","lat":"47.368","lon":"-122.1206","state":"Washington","zip":"98042","city":"Kent","address":"72606 Barnett Circle","hours":"12:09 PM","beers":19},
{"id":"df38b021-a65c-4203-88e9-4b4c535b3896","name":"Lesch, Cummerata and Wolf","lat":"47.6536","lon":"-117.4317","state":"Washington","zip":"99215","city":"Spokane","address":"4942 Sommers Center","hours":"11:25 AM","beers":25},
{"id":"a5cf455f-40bd-47fe-b7f2-84a7ff411419","name":"O'Keefe, Jacobi and Hessel","lat":"47.6036","lon":"-122.3256","state":"Washington","zip":"98104","city":"Seattle","address":"32477 Portage Place","hours":"11:43 PM","beers":15},
{"id":"59c6b685-19ff-4d92-bfba-34709b5804cb","name":"Hahn, Fisher and Koss","lat":"47.8599","lon":"-122.2848","state":"Washington","zip":"98206","city":"Everett","address":"99 Harper Crossing","hours":"11:53 PM","beers":86},
{"id":"5d5d36eb-8c1e-44a2-9b94-e4891b72ab46","name":"Volkman-Wyman","lat":"47.2484","lon":"-122.4644","state":"Washington","zip":"98405","city":"Tacoma","address":"99 Blackbird Lane","hours":"3:37 PM","beers":64},
{"id":"9d7485d7-c468-4fa3-8997-6163bc8d0ca3","name":"Anderson LLC","lat":"47.4511","lon":"-122.353","state":"Washington","zip":"98166","city":"Seattle","address":"8 Packers Circle","hours":"10:23 PM","beers":62},
{"id":"77287afc-859e-4c96-8bba-c678eba73fe4","name":"Quitzon Inc","lat":"47.8599","lon":"-122.2848","state":"Washington","zip":"98206","city":"Everett","address":"89 Forster Junction","hours":"12:57 PM","beers":7},
{"id":"87a3a596-acf3-441d-b4b4-ec71e5268b29","name":"Crooks Inc","lat":"47.7161","lon":"-122.3004","state":"Washington","zip":"98175","city":"Seattle","address":"943 Carberry Parkway","hours":"8:25 AM","beers":31},
{"id":"3eaa7fe9-5541-4a42-90ef-ed921bd7ccca","name":"Braun and Sons","lat":"47.6536","lon":"-117.4317","state":"Washington","zip":"99260","city":"Spokane","address":"620 Everett Crossing","hours":"11:19 AM","beers":50},
{"id":"5b25fc12-c7da-4eaf-8fb7-dd0fa1f48ff6","name":"Reynolds, Morissette and Osinski","lat":"47.6339","lon":"-122.3476","state":"Washington","zip":"98109","city":"Seattle","address":"9434 Prairieview Pass","hours":"4:54 PM","beers":20},
{"id":"7ae7f631-e705-41cf-81e0-b9621424788d","name":"Leffler-Schmeler","lat":"47.4323","lon":"-121.8034","state":"Washington","zip":"98140","city":"Seattle","address":"710 Melby Place","hours":"11:52 AM","beers":56},
{"id":"ef076b0d-8b21-4c57-8c00-e1def4ecc445","name":"Howell-Gibson","lat":"46.6288","lon":"-120.574","state":"Washington","zip":"98907","city":"Yakima","address":"76 Oneill Avenue","hours":"3:47 PM","beers":20},
{"id":"dad2b942-be60-4105-bf7f-b090fb94ba8e","name":"Williamson-White","lat":"47.4441","lon":"-122.3249","state":"Washington","zip":"98148","city":"Seattle","address":"021 Pond Park","hours":"9:49 AM","beers":1},
{"id":"25896c53-e858-4fd3-9df1-f55d47d742cf","name":"Cole-Breitenberg","lat":"47.4497","lon":"-122.3076","state":"Washington","zip":"98158","city":"Seattle","address":"1 Crescent Oaks Avenue","hours":"9:24 AM","beers":91},
{"id":"637282b3-7ac4-4504-b3df-649803e9a1fe","name":"Nicolas-Reynolds","lat":"46.6288","lon":"-120.574","state":"Washington","zip":"98907","city":"Yakima","address":"8236 Upham Lane","hours":"10:10 PM","beers":76},
{"id":"b142da75-29ae-49a1-966a-6fd4f39f0d28","name":"Botsford Group","lat":"47.0662","lon":"-122.1132","state":"Washington","zip":"98481","city":"Tacoma","address":"41 Graceland Parkway","hours":"8:49 AM","beers":83},
{"id":"5a56158b-f7f9-4c27-8e10-156a67d192e7","name":"Murphy Inc","lat":"47.6063","lon":"-122.3308","state":"Washington","zip":"98127","city":"Seattle","address":"034 Gerald Hill","hours":"11:24 AM","beers":92},
{"id":"c1b66157-7043-4e7a-a361-1de77d30a655","name":"Klein and Sons","lat":"47.2061","lon":"-122.4822","state":"Washington","zip":"98417","city":"Tacoma","address":"85428 Sutherland Parkway","hours":"8:32 AM","beers":82},
{"id":"704cbb6c-92a6-4d80-8377-1f1a04386523","name":"Lindgren, Koepp and Bode","lat":"45.6644","lon":"-122.5212","state":"Washington","zip":"98682","city":"Vancouver","address":"8037 Crownhardt Junction","hours":"3:14 PM","beers":80},
{"id":"378d45a2-b6e9-488d-8550-9f1d391dcee8","name":"Strosin and Sons","lat":"47.4511","lon":"-122.353","state":"Washington","zip":"98166","city":"Seattle","address":"49587 Glacier Hill Plaza","hours":"7:32 AM","beers":78},
{"id":"f70cfbeb-920b-4747-8d1f-2af8e549a198","name":"Roberts-Feil","lat":"47.1126","lon":"-122.7794","state":"Washington","zip":"98516","city":"Olympia","address":"0 Monterey Plaza","hours":"6:48 PM","beers":40},
{"id":"4914631a-4aef-4948-8279-757872c0e57d","name":"Streich, Christiansen and Ziemann","lat":"47.2061","lon":"-122.4822","state":"Washington","zip":"98417","city":"Tacoma","address":"596 Kropf Drive","hours":"8:22 PM","beers":18},
{"id":"8ce69334-9bf7-47f8-886b-90c317605d20","name":"Pouros Group","lat":"46.6288","lon":"-120.574","state":"Washington","zip":"98907","city":"Yakima","address":"1 Jana Parkway","hours":"12:30 PM","beers":51},
{"id":"e1517265-5b4a-4ed2-b249-2876de71dbdb","name":"Mante-Windler","lat":"45.8016","lon":"-122.5203","state":"Washington","zip":"98687","city":"Vancouver","address":"01 Westport Drive","hours":"8:19 AM","beers":70},
{"id":"2f59b009-a144-4356-80b7-e7f680006bc2","name":"Bashirian Inc","lat":"45.6231","lon":"-122.5767","state":"Washington","zip":"98664","city":"Vancouver","address":"0069 Dorton Drive","hours":"6:54 AM","beers":75},
{"id":"04c940e8-b0cc-43e1-be31-e4ec0a42374e","name":"Robel Group","lat":"47.6536","lon":"-117.4317","state":"Washington","zip":"99220","city":"Spokane","address":"679 Anhalt Road","hours":"11:33 AM","beers":1},
{"id":"93b518a5-6f0b-4b50-95cc-26199a29fa6e","name":"McLaughlin, Feest and Reinger","lat":"47.4511","lon":"-122.353","state":"Washington","zip":"98166","city":"Seattle","address":"774 Eggendart Crossing","hours":"10:41 PM","beers":79},
{"id":"54d9f508-29e5-47c6-b944-f85480361931","name":"Connelly-Rodriguez","lat":"47.6849","lon":"-122.2968","state":"Washington","zip":"98115","city":"Seattle","address":"06 Del Mar Point","hours":"6:52 AM","beers":42},
{"id":"d89135ba-6a3d-4b06-8d06-ffed026b4b71","name":"Bruen-Durgan","lat":"47.1591","lon":"-122.5485","state":"Washington","zip":"98498","city":"Lakewood","address":"29 Arapahoe Street","hours":"8:02 AM","beers":90},
{"id":"7393626f-f88f-4d31-95c6-bce7d9f677b0","name":"Bednar Group","lat":"47.6536","lon":"-117.4317","state":"Washington","zip":"99210","city":"Spokane","address":"67687 Summerview Park","hours":"5:35 PM","beers":92},
{"id":"5795c097-cd25-440a-ac08-df68ca40e39b","name":"Mosciski-Champlin","lat":"47.6536","lon":"-117.4317","state":"Washington","zip":"99260","city":"Spokane","address":"0203 Emmet Terrace","hours":"3:50 PM","beers":28},
{"id":"b2ff8ee6-e56f-4985-8fe1-d3c85314d537","name":"Prohaska Group","lat":"47.1441","lon":"-122.4434","state":"Washington","zip":"98447","city":"Tacoma","address":"04 Hansons Point","hours":"9:51 AM","beers":4},
{"id":"d08448e3-e947-400e-a87c-70c31a750bd7","name":"Cummerata LLC","lat":"47.6036","lon":"-122.3256","state":"Washington","zip":"98104","city":"Seattle","address":"12478 Morrow Junction","hours":"4:31 PM","beers":17},
{"id":"73a9653d-08c3-4e46-a9d2-e622594ffbe9","name":"Gottlieb and Sons","lat":"47.6849","lon":"-122.2968","state":"Washington","zip":"98115","city":"Seattle","address":"56 North Trail","hours":"8:21 PM","beers":66},
{"id":"b21c188b-d8ba-4323-8f11-451400cae712","name":"Hodkiewicz-Keebler","lat":"45.8016","lon":"-122.5203","state":"Washington","zip":"98687","city":"Vancouver","address":"34837 Ruskin Center","hours":"7:47 AM","beers":86},
{"id":"b6093838-e589-4568-b9cf-ca5f75ab102a","name":"Graham, Homenick and Kirlin","lat":"47.4323","lon":"-121.8034","state":"Washington","zip":"98140","city":"Seattle","address":"7 Morning Lane","hours":"10:30 PM","beers":3},
{"id":"fd64ec1f-4961-4a3d-992f-6a36a95009f6","name":"Casper, Roob and Flatley","lat":"47.6063","lon":"-122.3308","state":"Washington","zip":"98127","city":"Seattle","address":"733 Dapin Road","hours":"8:05 AM","beers":61},
{"id":"f4ff05c7-6bea-4bb3-ac23-25e3dd3112af","name":"Schultz-Rice","lat":"45.8016","lon":"-122.5203","state":"Washington","zip":"98687","city":"Vancouver","address":"84 Westend Park","hours":"10:02 PM","beers":99},
{"id":"218c2378-a20a-4250-9252-df13db9b9ff7","name":"Schultz, Barrows and Durgan","lat":"47.6536","lon":"-117.4317","state":"Washington","zip":"99252","city":"Spokane","address":"436 Pine View Park","hours":"7:03 AM","beers":92},
{"id":"03f386cf-2fc4-4a7a-b616-088f2d0ef1cd","name":"Donnelly-Kerluke","lat":"47.3081","lon":"-122.4185","state":"Washington","zip":"98442","city":"Tacoma","address":"9745 Schlimgen Terrace","hours":"10:45 PM","beers":3},
{"id":"8857b50c-3f7c-4204-a89d-f92219123bd1","name":"Langworth, Gibson and Hermann","lat":"45.6231","lon":"-122.5767","state":"Washington","zip":"98664","city":"Vancouver","address":"2666 Barnett Way","hours":"6:21 PM","beers":19},
{"id":"5b65d38e-e573-4906-b38c-230a63851c71","name":"Ortiz Inc","lat":"47.368","lon":"-122.1206","state":"Washington","zip":"98042","city":"Kent","address":"852 Meadow Vale Avenue","hours":"7:44 PM","beers":8},
{"id":"c1cd5470-38ef-4d58-95e3-92d24b880733","name":"O'Kon-Runte","lat":"47.6964","lon":"-117.4399","state":"Washington","zip":"99205","city":"Spokane","address":"6656 Anniversary Court","hours":"6:53 PM","beers":3},
{"id":"b808010b-f465-46e2-a476-286c24fe8f50","name":"Dickens, Heaney and Gleason","lat":"47.6536","lon":"-117.4317","state":"Washington","zip":"99220","city":"Spokane","address":"14153 Tony Center","hours":"11:15 PM","beers":87},
{"id":"5c411d7e-d8f0-4086-8f97-6de379fc247f","name":"Streich Group","lat":"46.6288","lon":"-120.574","state":"Washington","zip":"98907","city":"Yakima","address":"7621 Roth Point","hours":"7:38 AM","beers":78},
{"id":"4622e1b1-73e4-4c8b-9b31-4b0a58e14d28","name":"Little, Satterfield and Bergnaum","lat":"47.6115","lon":"-122.1162","state":"Washington","zip":"98008","city":"Bellevue","address":"26 Mcguire Court","hours":"11:01 AM","beers":100},
{"id":"55171ee4-3b9e-4414-ba45-c620007a077f","name":"Gleichner, Parisian and Spinka","lat":"47.6536","lon":"-117.4317","state":"Washington","zip":"99260","city":"Spokane","address":"050 South Plaza","hours":"5:09 AM","beers":14},
{"id":"0687c5f2-33ab-4973-af1d-9ba1b61f661b","name":"Schneider, Runolfsson and McClure","lat":"47.1591","lon":"-122.5485","state":"Washington","zip":"98498","city":"Lakewood","address":"5943 Hermina Circle","hours":"9:21 PM","beers":90},
{"id":"3d42ce61-eb08-4290-969b-d1894be34dd0","name":"Metz, Parisian and Collins","lat":"47.6339","lon":"-122.3476","state":"Washington","zip":"98109","city":"Seattle","address":"4987 Fremont Park","hours":"11:20 PM","beers":72},
{"id":"f8409765-dbef-499a-87cb-4655a79e564c","name":"Beatty Inc","lat":"47.6564","lon":"-122.3048","state":"Washington","zip":"98195","city":"Seattle","address":"9895 Blackbird Court","hours":"10:54 AM","beers":54},
{"id":"17b60aa5-fb87-4cf1-883b-59bf83aecefd","name":"Heathcote LLC","lat":"47.6536","lon":"-117.4317","state":"Washington","zip":"99252","city":"Spokane","address":"964 Vera Center","hours":"5:47 PM","beers":54},
{"id":"e7cb135d-5b52-408f-8651-42e676600516","name":"Lind Inc","lat":"47.2325","lon":"-122.3594","state":"Washington","zip":"98424","city":"Tacoma","address":"06 Pawling Alley","hours":"1:25 PM","beers":88},
{"id":"db8f2228-94c9-4ee4-bd32-9f6181a74bd5","name":"Runolfsdottir, Miller and Ebert","lat":"47.4511","lon":"-122.353","state":"Washington","zip":"98166","city":"Seattle","address":"382 Reindahl Hill","hours":"4:43 PM","beers":16},
{"id":"18ec32c4-4429-4d11-b5b9-cea766917277","name":"O'Kon LLC","lat":"47.0662","lon":"-122.1132","state":"Washington","zip":"98411","city":"Tacoma","address":"6 Westend Avenue","hours":"9:12 AM","beers":66},
{"id":"cd1f55f0-6883-4652-84db-65e7f5e5bc8d","name":"Casper, Walter and Boyle","lat":"47.6536","lon":"-117.4317","state":"Washington","zip":"99220","city":"Spokane","address":"93207 Tennessee Parkway","hours":"12:52 PM","beers":83},
{"id":"cc1ffe8b-97c7-4d5b-9339-472c4cff8d25","name":"Kuhlman-Gerhold","lat":"47.0662","lon":"-122.1132","state":"Washington","zip":"98464","city":"Tacoma","address":"4521 Rigney Street","hours":"6:42 PM","beers":21},
{"id":"e14ed3d4-6e5a-4516-afa2-2197139b22fe","name":"Goyette-Conroy","lat":"47.6564","lon":"-122.3048","state":"Washington","zip":"98195","city":"Seattle","address":"97 Elka Drive","hours":"2:43 PM","beers":76},
{"id":"2b14340d-db4f-4128-9455-531642a71c17","name":"Kshlerin-Thiel","lat":"47.2484","lon":"-122.4644","state":"Washington","zip":"98405","city":"Tacoma","address":"6400 Menomonie Park","hours":"6:37 AM","beers":59},
{"id":"eb23371b-671b-483a-b92e-238762516d60","name":"Bins, Gislason and Weber","lat":"45.8016","lon":"-122.5203","state":"Washington","zip":"98687","city":"Vancouver","address":"068 Ridgeway Alley","hours":"1:06 PM","beers":98},
{"id":"8362ec3c-72fc-4c6e-b719-ca81376ef7b1","name":"Braun-Schmitt","lat":"47.2484","lon":"-122.4644","state":"Washington","zip":"98405","city":"Tacoma","address":"279 Talmadge Center","hours":"3:13 PM","beers":75},
{"id":"99c17b4d-8c60-415a-9629-a228450ed822","name":"Stanton-Reichel","lat":"47.6536","lon":"-117.4317","state":"Washington","zip":"99210","city":"Spokane","address":"0 Glendale Park","hours":"9:14 PM","beers":48},
{"id":"8b26c053-9e1d-4717-ac35-fd583cc6778d","name":"Klocko-Haag","lat":"47.4323","lon":"-121.8034","state":"Washington","zip":"98185","city":"Seattle","address":"84 Service Plaza","hours":"12:39 PM","beers":97},
{"id":"32c010d0-0a97-48c3-96bf-774e2215144b","name":"Bernhard, Botsford and Huel","lat":"45.8016","lon":"-122.5203","state":"Washington","zip":"98687","city":"Vancouver","address":"9172 Elka Avenue","hours":"12:15 PM","beers":81},
{"id":"90b48e11-97b7-4211-a694-2f26ce2e5f28","name":"Harber Group","lat":"47.6115","lon":"-122.1162","state":"Washington","zip":"98008","city":"Bellevue","address":"77125 Green Ridge Hill","hours":"1:25 PM","beers":33},
{"id":"86c3b52c-0dab-480d-b85d-6ddf4638e1bf","name":"Weber Group","lat":"47.6964","lon":"-117.4399","state":"Washington","zip":"99205","city":"Spokane","address":"78036 Oak Valley Lane","hours":"6:21 AM","beers":100},
{"id":"4c9c9a56-8dc7-44e2-9752-d1d2197d8968","name":"Schaefer, Moen and Weber","lat":"47.1441","lon":"-122.4434","state":"Washington","zip":"98447","city":"Tacoma","address":"072 Brickson Park Point","hours":"1:40 PM","beers":4},
{"id":"432c5639-5dfa-48e8-9127-4cfc3e3d6498","name":"Jones and Sons","lat":"46.6288","lon":"-120.574","state":"Washington","zip":"98907","city":"Yakima","address":"7 Mallard Drive","hours":"2:02 PM","beers":63},
{"id":"4e385db9-8692-4fd8-aec4-e0d57daeae9d","name":"Gerlach, Wiza and Feeney","lat":"47.2325","lon":"-122.3594","state":"Washington","zip":"98424","city":"Tacoma","address":"0 Dixon Street","hours":"7:30 PM","beers":32},
{"id":"b1772f14-4d4c-4618-867d-444c5f31e349","name":"Osinski, Lakin and Murphy","lat":"45.6231","lon":"-122.5767","state":"Washington","zip":"98664","city":"Vancouver","address":"00808 Quincy Alley","hours":"5:00 AM","beers":14},
{"id":"5c444347-7cb9-4e0b-b1bc-447a78c611b6","name":"Morissette, Roberts and Reynolds","lat":"47.368","lon":"-122.1206","state":"Washington","zip":"98042","city":"Kent","address":"50 Marcy Terrace","hours":"2:25 PM","beers":97},
{"id":"6682e245-7f92-4f06-8439-b379e8392aaa","name":"Green, Von and Mann","lat":"47.7161","lon":"-122.3004","state":"Washington","zip":"98175","city":"Seattle","address":"39295 Fisk Junction","hours":"6:39 AM","beers":57},
{"id":"aeb4e3d7-bbcc-4ed7-b6fb-7877bce5f1f2","name":"Schroeder-Predovic","lat":"47.6115","lon":"-122.1162","state":"Washington","zip":"98008","city":"Bellevue","address":"2 Bunker Hill Terrace","hours":"8:49 PM","beers":86},
{"id":"7706991e-011a-4171-888e-1de6016d58da","name":"D'Amore, Jenkins and Treutel","lat":"47.2061","lon":"-122.4822","state":"Washington","zip":"98417","city":"Tacoma","address":"2 Springview Pass","hours":"11:05 AM","beers":30},
{"id":"9571695b-6ea9-417d-93c3-d672eeccc8db","name":"Considine, Koepp and O'Keefe","lat":"45.6644","lon":"-122.5212","state":"Washington","zip":"98682","city":"Vancouver","address":"0565 Bunting Avenue","hours":"10:44 AM","beers":90},
{"id":"ada34f40-459d-4328-afdb-4538660c0547","name":"Greenfelder Group","lat":"47.6151","lon":"-122.3447","state":"Washington","zip":"98121","city":"Seattle","address":"1647 Mesta Trail","hours":"1:40 PM","beers":10},
{"id":"c96a4d2f-6c0e-46fd-b164-5e4e69f6082b","name":"Strosin Inc","lat":"47.6151","lon":"-122.3447","state":"Washington","zip":"98121","city":"Seattle","address":"776 Trailsway Drive","hours":"10:48 PM","beers":100},
{"id":"2598eb4e-5cf7-43fc-a406-504dafaf9dc1","name":"Hackett and Sons","lat":"47.4497","lon":"-122.3076","state":"Washington","zip":"98158","city":"Seattle","address":"57 Eastlawn Plaza","hours":"6:50 PM","beers":53},
{"id":"23ee60b3-0238-4bcc-874c-89c9885cf744","name":"Konopelski Inc","lat":"47.0662","lon":"-122.1132","state":"Washington","zip":"98464","city":"Tacoma","address":"6801 Loftsgordon Trail","hours":"7:05 PM","beers":11},
{"id":"b5526e85-f2dc-49c7-ad58-095e6364fdab","name":"Kris-Crist","lat":"47.6536","lon":"-117.4317","state":"Washington","zip":"99210","city":"Spokane","address":"198 Basil Terrace","hours":"6:32 PM","beers":84},
{"id":"cf96b6a4-d7f6-411b-b233-cd0ac97a2dc5","name":"Hudson-Schaden","lat":"47.0662","lon":"-122.1132","state":"Washington","zip":"98411","city":"Tacoma","address":"49983 Judy Terrace","hours":"10:07 AM","beers":8},
{"id":"bbc5f7b5-1583-429e-be5d-c3cd706474e6","name":"Bauch, Block and Mosciski","lat":"47.1441","lon":"-122.4434","state":"Washington","zip":"98447","city":"Tacoma","address":"2 Raven Alley","hours":"6:44 AM","beers":95},
{"id":"4404e858-30d8-437b-a246-2ffa559919bb","name":"D'Amore-Baumbach","lat":"47.2061","lon":"-122.4822","state":"Washington","zip":"98417","city":"Tacoma","address":"3659 Lawn Lane","hours":"11:30 AM","beers":56},
{"id":"065019b6-4fa8-4e06-801d-c1f346906f0b","name":"Renner-Wisozk","lat":"47.8599","lon":"-122.2848","state":"Washington","zip":"98206","city":"Everett","address":"88 Nevada Crossing","hours":"9:48 AM","beers":13},
{"id":"379b0bff-8c6e-404d-ada1-47a3b539d03b","name":"Rowe Inc","lat":"47.6964","lon":"-117.4399","state":"Washington","zip":"99205","city":"Spokane","address":"77 Claremont Parkway","hours":"4:16 PM","beers":33},
{"id":"5725a614-05db-4ece-9028-8953713592cb","name":"Beahan-Abernathy","lat":"47.3081","lon":"-122.4185","state":"Washington","zip":"98442","city":"Tacoma","address":"2980 Oakridge Parkway","hours":"5:45 AM","beers":35},
{"id":"c4c4c083-8dba-4721-9434-d7ec4fd9b3f5","name":"McLaughlin, Conn and Robel","lat":"47.6151","lon":"-122.3447","state":"Washington","zip":"98121","city":"Seattle","address":"5 Rigney Alley","hours":"5:16 PM","beers":53},
{"id":"1a6919ad-ee9e-432b-88aa-4c425856cfa2","name":"Bailey-Wisozk","lat":"47.7377","lon":"-122.3431","state":"Washington","zip":"98133","city":"Seattle","address":"49 Kensington Alley","hours":"11:22 PM","beers":61},
{"id":"d9db2bce-c0de-450a-9325-9fe8b887dc92","name":"Stoltenberg and Sons","lat":"47.6536","lon":"-117.4317","state":"Washington","zip":"99220","city":"Spokane","address":"01 Dovetail Street","hours":"3:41 PM","beers":34},
{"id":"3349d005-838e-4fa1-901b-5f888d8b1f3a","name":"Fadel-Fisher","lat":"47.368","lon":"-122.1206","state":"Washington","zip":"98042","city":"Kent","address":"49 Dennis Drive","hours":"3:44 PM","beers":84},
{"id":"3bf1b688-8bb6-49bd-a2fe-d078d81c968e","name":"Raynor LLC","lat":"47.6115","lon":"-122.1162","state":"Washington","zip":"98008","city":"Bellevue","address":"4784 Portage Parkway","hours":"7:16 PM","beers":26},
{"id":"627202b2-7503-4055-8f1e-aa2b976b9dc0","name":"O'Conner-Walker","lat":"47.1591","lon":"-122.5485","state":"Washington","zip":"98498","city":"Lakewood","address":"2883 Calypso Parkway","hours":"11:21 AM","beers":22},
{"id":"7cebfaff-0fe7-498e-b237-1d711b1e79c3","name":"Collins-Kilback","lat":"45.8016","lon":"-122.5203","state":"Washington","zip":"98687","city":"Vancouver","address":"7444 Debs Crossing","hours":"4:16 PM","beers":9},
{"id":"ba08b012-b9d1-48ec-830b-7e63a354d2e5","name":"Schumm Group","lat":"45.6231","lon":"-122.5767","state":"Washington","zip":"98664","city":"Vancouver","address":"90638 Londonderry Center","hours":"8:11 AM","beers":7},
{"id":"7cc50b4c-f817-4279-9399-e00e10d511d0","name":"Cummerata-Lesch","lat":"47.6036","lon":"-122.3256","state":"Washington","zip":"98104","city":"Seattle","address":"6462 Shelley Road","hours":"7:57 PM","beers":44},
{"id":"fc235ce5-06a1-4d72-a8a0-bd968f3ed171","name":"Bergnaum, Botsford and Cummerata","lat":"47.7377","lon":"-122.3431","state":"Washington","zip":"98133","city":"Seattle","address":"581 Hallows Street","hours":"6:22 AM","beers":34},
{"id":"9c2af130-c495-4166-8719-654e351049d6","name":"Bode-Simonis","lat":"47.4441","lon":"-122.3249","state":"Washington","zip":"98148","city":"Seattle","address":"45175 Kings Court","hours":"7:23 PM","beers":70},
{"id":"cddfaf4e-038a-45b7-81d8-731b9878eebd","name":"Pacocha Group","lat":"47.2325","lon":"-122.3594","state":"Washington","zip":"98424","city":"Tacoma","address":"62 Hallows Plaza","hours":"6:57 PM","beers":84},
{"id":"0e5dc43e-7a93-4f64-a2db-7a84aeab88d4","name":"Cormier and Sons","lat":"47.4441","lon":"-122.3249","state":"Washington","zip":"98148","city":"Seattle","address":"596 Sycamore Trail","hours":"11:41 PM","beers":22},
{"id":"2d8800c8-0964-4e10-8d96-367d7819ce19","name":"Rutherford-Cremin","lat":"47.0662","lon":"-122.1132","state":"Washington","zip":"98481","city":"Tacoma","address":"7 Springs Street","hours":"3:40 PM","beers":29},
{"id":"5a85fd46-7852-4517-9ebc-ca0e2b685cd7","name":"Runolfsdottir-Bartoletti","lat":"47.1441","lon":"-122.4434","state":"Washington","zip":"98447","city":"Tacoma","address":"155 2nd Court","hours":"6:51 PM","beers":4},
{"id":"40da3ec6-edf8-490b-ad8b-dfbdca30d453","name":"Schulist, Parisian and Kulas","lat":"47.4323","lon":"-121.8034","state":"Washington","zip":"98185","city":"Seattle","address":"69508 East Road","hours":"1:49 PM","beers":3},
{"id":"20d8bd4f-48be-461d-a723-54d286de6e8f","name":"Gulgowski-Williamson","lat":"47.6536","lon":"-117.4317","state":"Washington","zip":"99215","city":"Spokane","address":"2 Darwin Junction","hours":"2:42 PM","beers":56},
{"id":"48460586-b9ba-4736-b08c-2cd2f5bfd54b","name":"Ritchie-Bernier","lat":"47.6964","lon":"-117.4399","state":"Washington","zip":"99205","city":"Spokane","address":"15 Schurz Lane","hours":"2:58 PM","beers":98},
{"id":"53cb14e8-a3b7-4aff-97c9-2cb36c8a65c4","name":"Lockman Group","lat":"47.4511","lon":"-122.353","state":"Washington","zip":"98166","city":"Seattle","address":"1027 Steensland Circle","hours":"8:17 PM","beers":79},
{"id":"c4ea810a-f9c8-42f5-9cf2-e1b5a5b07668","name":"Rodriguez LLC","lat":"47.6536","lon":"-117.4317","state":"Washington","zip":"99220","city":"Spokane","address":"9569 Mariners Cove Terrace","hours":"11:11 PM","beers":23},
{"id":"0bdcff86-ddc0-4836-955e-4584622b301a","name":"McLaughlin, Bednar and Fay","lat":"45.6644","lon":"-122.5212","state":"Washington","zip":"98682","city":"Vancouver","address":"91 Hoffman Crossing","hours":"1:06 PM","beers":64},
{"id":"30784180-511b-4831-9392-02812a181cc1","name":"Kautzer-Marvin","lat":"47.2484","lon":"-122.4644","state":"Washington","zip":"98405","city":"Tacoma","address":"4714 Comanche Circle","hours":"1:02 PM","beers":13},
{"id":"19a440c5-7ee5-4e78-8120-44715111cc05","name":"Streich, Langosh and Roberts","lat":"47.6964","lon":"-117.4399","state":"Washington","zip":"99205","city":"Spokane","address":"890 Jenifer Hill","hours":"7:35 PM","beers":94},
{"id":"ae09cd38-51f4-42d7-8137-ef0d1f4258ba","name":"Turcotte-Gaylord","lat":"47.0662","lon":"-122.1132","state":"Washington","zip":"98481","city":"Tacoma","address":"38893 Heffernan Street","hours":"12:05 PM","beers":51},
{"id":"94b64396-8bb5-4da0-a469-0ab7ad102926","name":"Hodkiewicz-Fahey","lat":"47.1042","lon":"-122.87","state":"Washington","zip":"98506","city":"Olympia","address":"69 Hoffman Drive","hours":"10:10 PM","beers":48},
{"id":"ba837a9a-a4d4-46e8-9c34-9410b939b8a0","name":"Armstrong-Ferry","lat":"47.0662","lon":"-122.1132","state":"Washington","zip":"98411","city":"Tacoma","address":"355 Lakewood Gardens Crossing","hours":"8:53 AM","beers":10},
{"id":"5d8c94c4-41d3-4412-b2a9-27a87149d4e6","name":"Von Inc","lat":"45.8016","lon":"-122.5203","state":"Washington","zip":"98687","city":"Vancouver","address":"401 Ryan Point","hours":"8:32 PM","beers":44},
{"id":"3fc1b53e-9aa5-4199-a63a-68674fa17416","name":"Botsford-Goodwin","lat":"47.7377","lon":"-122.3431","state":"Washington","zip":"98133","city":"Seattle","address":"2794 Old Shore Crossing","hours":"7:49 PM","beers":5},
{"id":"0e3c63dd-ce2e-4beb-bf3a-30af16d7c844","name":"Medhurst and Sons","lat":"47.0662","lon":"-122.1132","state":"Washington","zip":"98411","city":"Tacoma","address":"4650 Manitowish Park","hours":"5:05 AM","beers":90},
{"id":"0aa5f504-76b5-47e1-89c2-015d7d88d22e","name":"Heathcote, Gottlieb and Hamill","lat":"47.4497","lon":"-122.3076","state":"Washington","zip":"98158","city":"Seattle","address":"075 Waxwing Way","hours":"11:52 PM","beers":49},
{"id":"7afd81f0-19bc-4be6-8571-6d52f916d130","name":"O'Kon Inc","lat":"47.0662","lon":"-122.1132","state":"Washington","zip":"98481","city":"Tacoma","address":"839 Colorado Junction","hours":"11:48 AM","beers":59},
{"id":"355e29f4-873c-4cee-b0d9-c5aad1646a71","name":"Kling-Reilly","lat":"47.6339","lon":"-122.3476","state":"Washington","zip":"98109","city":"Seattle","address":"42 Rockefeller Pass","hours":"7:07 AM","beers":42},
{"id":"b7eb06f0-496b-484a-8b6c-91fb1d91c99b","name":"Roob and Sons","lat":"47.6151","lon":"-122.3447","state":"Washington","zip":"98121","city":"Seattle","address":"865 Heffernan Crossing","hours":"9:54 PM","beers":74},
{"id":"e98e11ca-661d-450f-b51c-9098fab9041a","name":"Bode-Crooks","lat":"47.0662","lon":"-122.1132","state":"Washington","zip":"98411","city":"Tacoma","address":"16 Drewry Way","hours":"8:53 PM","beers":53},
{"id":"f64460cb-4aed-4fbd-b9ed-b868f22636f1","name":"Rice Inc","lat":"47.6536","lon":"-117.4317","state":"Washington","zip":"99252","city":"Spokane","address":"1269 Buena Vista Avenue","hours":"9:03 AM","beers":30},
{"id":"9f192245-bbe0-4e23-be70-e946aa625b5a","name":"Marquardt Inc","lat":"47.6339","lon":"-122.3476","state":"Washington","zip":"98109","city":"Seattle","address":"21 Hoepker Trail","hours":"6:07 PM","beers":59},
{"id":"451c54f6-031e-4db4-a8d6-6f05aa3ca562","name":"Blanda-Toy","lat":"47.1042","lon":"-122.87","state":"Washington","zip":"98506","city":"Olympia","address":"3785 Anzinger Junction","hours":"8:22 AM","beers":11},
{"id":"f9051646-d53d-4832-bfb3-d4201a25f980","name":"Bednar-Armstrong","lat":"47.6063","lon":"-122.3308","state":"Washington","zip":"98127","city":"Seattle","address":"247 Park Meadow Lane","hours":"5:35 PM","beers":91},
{"id":"d754f353-16f6-4cc2-aca0-e81ca9653914","name":"Ratke, Mosciski and Christiansen","lat":"47.7161","lon":"-122.3004","state":"Washington","zip":"98175","city":"Seattle","address":"33 East Junction","hours":"6:32 PM","beers":98},
{"id":"91bd2d64-9318-458b-9f24-31c7ee31f459","name":"West, Frami and Harvey","lat":"47.6115","lon":"-122.1162","state":"Washington","zip":"98008","city":"Bellevue","address":"5 Hanson Avenue","hours":"11:48 AM","beers":15},
{"id":"cfe41faf-683f-479b-ade3-e2476018d740","name":"Erdman-King","lat":"47.6115","lon":"-122.1162","state":"Washington","zip":"98008","city":"Bellevue","address":"56 Independence Street","hours":"6:19 AM","beers":77},
{"id":"c48917de-06ee-4055-97c1-8c9e96b34148","name":"Feeney LLC","lat":"47.6536","lon":"-117.4317","state":"Washington","zip":"99215","city":"Spokane","address":"867 Fair Oaks Court","hours":"8:28 AM","beers":53},
{"id":"e0f2f684-81d6-42a2-8230-9d64ea881dfb","name":"Bosco Group","lat":"47.2484","lon":"-122.4644","state":"Washington","zip":"98405","city":"Tacoma","address":"113 Hermina Terrace","hours":"5:54 PM","beers":81},
{"id":"b0cd4c10-783e-45b2-b660-27f010be4404","name":"Daniel Group","lat":"47.6151","lon":"-122.3447","state":"Washington","zip":"98121","city":"Seattle","address":"53484 Katie Center","hours":"1:25 PM","beers":57},
{"id":"e980626d-0f66-422a-8f69-2277ed317119","name":"Deckow, Botsford and Emmerich","lat":"47.4323","lon":"-121.8034","state":"Washington","zip":"98140","city":"Seattle","address":"9205 Linden Junction","hours":"12:57 PM","beers":58},
{"id":"680a0f0e-6723-4b05-8ccf-79f86b98671c","name":"Bahringer-Weber","lat":"47.6964","lon":"-117.4399","state":"Washington","zip":"99205","city":"Spokane","address":"83 Gateway Place","hours":"5:17 PM","beers":44},
{"id":"5b5e0f04-44db-4f82-a444-2efd9c3ec9a0","name":"Muller-Kautzer","lat":"47.6536","lon":"-117.4317","state":"Washington","zip":"99260","city":"Spokane","address":"9487 Oriole Avenue","hours":"10:38 PM","beers":24},
{"id":"02805b00-52b2-4974-8b1a-9da3074d7c83","name":"Moen and Sons","lat":"47.0662","lon":"-122.1132","state":"Washington","zip":"98464","city":"Tacoma","address":"3107 Starling Center","hours":"2:23 PM","beers":64},
{"id":"f78259d9-4823-423d-be96-b4bd59c8aff1","name":"Schiller and Sons","lat":"47.6536","lon":"-117.4317","state":"Washington","zip":"99210","city":"Spokane","address":"234 Browning Terrace","hours":"1:56 PM","beers":95},
{"id":"afa91940-3cf4-4987-bd2c-1c0eb7798921","name":"Veum Inc","lat":"47.4497","lon":"-122.3076","state":"Washington","zip":"98158","city":"Seattle","address":"910 Vernon Center","hours":"5:52 PM","beers":19},
{"id":"1c820fe5-2e88-4cdf-92f9-177d4401bcbb","name":"Doyle, Corwin and Bradtke","lat":"47.0662","lon":"-122.1132","state":"Washington","zip":"98464","city":"Tacoma","address":"91 Monterey Crossing","hours":"2:51 PM","beers":22},
{"id":"2faa7c03-164f-4d3f-beb3-94f3b842464e","name":"Steuber Inc","lat":"47.6115","lon":"-122.1162","state":"Washington","zip":"98008","city":"Bellevue","address":"1002 Nobel Lane","hours":"12:40 PM","beers":77},
{"id":"5ef7471f-a5c8-4a12-a4d1-70440ca3daa5","name":"McClure Group","lat":"47.2061","lon":"-122.4822","state":"Washington","zip":"98417","city":"Tacoma","address":"545 Washington Lane","hours":"6:38 PM","beers":45},
{"id":"4bfefc2f-ba63-4dcf-a3e3-d040f108769c","name":"Kshlerin, Fritsch and Hintz","lat":"47.6536","lon":"-117.4317","state":"Washington","zip":"99220","city":"Spokane","address":"4368 Beilfuss Alley","hours":"3:11 PM","beers":12},
{"id":"67188283-783d-42e2-87cd-6b11fa088fe7","name":"Considine-Kozey","lat":"47.1591","lon":"-122.5485","state":"Washington","zip":"98498","city":"Lakewood","address":"6 Commercial Alley","hours":"11:53 AM","beers":73},
{"id":"088275ac-ed7a-44fb-b2de-009612e14303","name":"Mann, Kling and Bartell","lat":"47.7161","lon":"-122.3004","state":"Washington","zip":"98175","city":"Seattle","address":"6 Russell Terrace","hours":"6:07 PM","beers":78},
{"id":"5fe1a86f-65e7-4d83-8913-3c8d056da60a","name":"Weissnat, Johns and Fahey","lat":"47.6536","lon":"-117.4317","state":"Washington","zip":"99220","city":"Spokane","address":"389 Fuller Trail","hours":"8:55 AM","beers":20},
{"id":"3f8ef248-a81f-4a67-bc96-0b0d2bef367d","name":"Hodkiewicz and Sons","lat":"47.7161","lon":"-122.3004","state":"Washington","zip":"98175","city":"Seattle","address":"69 Kennedy Point","hours":"2:04 PM","beers":7},
{"id":"27fccc4a-06ee-4ddb-9cb8-b53d74fe24fd","name":"Bruen, Carter and Bogisich","lat":"47.6536","lon":"-117.4317","state":"Washington","zip":"99252","city":"Spokane","address":"212 Mendota Drive","hours":"6:30 PM","beers":53},
{"id":"8715caf7-219f-4877-a71b-5434a94b8f41","name":"Kassulke LLC","lat":"47.1441","lon":"-122.4434","state":"Washington","zip":"98447","city":"Tacoma","address":"304 Barnett Terrace","hours":"9:13 AM","beers":74},
{"id":"5e3615b5-4ce9-4627-9815-04bf07afd809","name":"Morissette, Weber and Rosenbaum","lat":"47.0662","lon":"-122.1132","state":"Washington","zip":"98481","city":"Tacoma","address":"6146 Debs Park","hours":"4:34 PM","beers":56},
{"id":"cd2c8351-aadc-4c0c-8eda-f4d0ac318363","name":"Little, Braun and Emmerich","lat":"47.7161","lon":"-122.3004","state":"Washington","zip":"98175","city":"Seattle","address":"8 New Castle Center","hours":"5:24 PM","beers":99},
{"id":"427d25b3-2cf1-487c-ab48-9f5b909a456b","name":"Reilly-Rice","lat":"47.0662","lon":"-122.1132","state":"Washington","zip":"98481","city":"Tacoma","address":"2 Russell Place","hours":"5:12 PM","beers":59},
{"id":"15935b17-85bd-4751-9a07-94ef6c1616fe","name":"Considine Group","lat":"47.6151","lon":"-122.3447","state":"Washington","zip":"98121","city":"Seattle","address":"82 Sherman Avenue","hours":"2:39 PM","beers":60},
{"id":"f9a72997-2896-4f6c-9388-f5edc1ddf849","name":"Lemke-Schowalter","lat":"47.2484","lon":"-122.4644","state":"Washington","zip":"98405","city":"Tacoma","address":"33492 Barby Avenue","hours":"7:02 PM","beers":51},
{"id":"4d6edf3a-a276-43ed-8c22-74b817fa33de","name":"Altenwerth and Sons","lat":"47.368","lon":"-122.1206","state":"Washington","zip":"98042","city":"Kent","address":"953 Mallory Court","hours":"12:04 PM","beers":76},
{"id":"1d32a652-91a4-436e-ab7b-4a8cb05d286e","name":"Orn, Hodkiewicz and Ratke","lat":"47.2484","lon":"-122.4644","state":"Washington","zip":"98405","city":"Tacoma","address":"52935 Washington Avenue","hours":"7:32 PM","beers":89},
{"id":"540c2d1d-a01c-495c-8b9a-3bad4748adb4","name":"Sipes-Hoeger","lat":"45.6644","lon":"-122.5212","state":"Washington","zip":"98682","city":"Vancouver","address":"55 Hooker Hill","hours":"8:52 AM","beers":85},
{"id":"61e05ce1-0205-4c8c-8ca2-e7d5c48c583e","name":"Koelpin and Sons","lat":"47.6964","lon":"-117.4399","state":"Washington","zip":"99205","city":"Spokane","address":"328 Fieldstone Street","hours":"1:46 PM","beers":63},
{"id":"42276bac-fcd7-4d11-8e57-7bfed1d55caa","name":"Murray-Ward","lat":"47.6964","lon":"-117.4399","state":"Washington","zip":"99205","city":"Spokane","address":"6 Rusk Court","hours":"9:09 PM","beers":97},
{"id":"1eeaddb2-e16d-40b3-bba6-cf883189d839","name":"Nicolas-Weber","lat":"47.6564","lon":"-122.3048","state":"Washington","zip":"98195","city":"Seattle","address":"5 Village Green Center","hours":"9:44 PM","beers":46},
{"id":"28c47307-7762-48b9-8709-5cbae6b3c24a","name":"Fadel-Auer","lat":"47.6849","lon":"-122.2968","state":"Washington","zip":"98115","city":"Seattle","address":"4 Mitchell Park","hours":"9:05 AM","beers":21},
{"id":"810e264e-34a8-43fe-a5c4-be82e0ac6d5f","name":"Bode-Roob","lat":"47.6536","lon":"-117.4317","state":"Washington","zip":"99215","city":"Spokane","address":"35 Artisan Street","hours":"12:32 PM","beers":62},
{"id":"345108d2-9774-4ec9-8241-67556352d5eb","name":"Volkman, Corwin and Wintheiser","lat":"47.7377","lon":"-122.3431","state":"Washington","zip":"98133","city":"Seattle","address":"4972 Comanche Court","hours":"9:18 PM","beers":85},
{"id":"7312c047-5425-4938-a079-0d05b4db0304","name":"Lowe LLC","lat":"47.1042","lon":"-122.87","state":"Washington","zip":"98506","city":"Olympia","address":"0079 Maple Lane","hours":"7:46 AM","beers":23},
{"id":"de1601f4-b5d4-48b7-9beb-aa219028562b","name":"Orn LLC","lat":"47.6849","lon":"-122.2968","state":"Washington","zip":"98115","city":"Seattle","address":"1 Memorial Point","hours":"6:35 AM","beers":4},
{"id":"6b8847c1-0ecc-42b7-9798-a92b055bc14c","name":"Rowe LLC","lat":"47.1591","lon":"-122.5485","state":"Washington","zip":"98498","city":"Lakewood","address":"0813 Clyde Gallagher Junction","hours":"7:18 AM","beers":24},
{"id":"6c43343a-cd3d-4ad7-87e0-86e3c45d5f0a","name":"Leffler, Doyle and Huel","lat":"47.2325","lon":"-122.3594","state":"Washington","zip":"98424","city":"Tacoma","address":"0815 Melrose Terrace","hours":"12:56 PM","beers":42},
{"id":"b5384a3f-bf7c-4375-a9cb-d9a4687606d5","name":"Bahringer-O'Connell","lat":"47.6564","lon":"-122.3048","state":"Washington","zip":"98195","city":"Seattle","address":"850 Union Parkway","hours":"8:48 PM","beers":83},
{"id":"153e28af-813f-4d5c-872e-3c547b26cb48","name":"Sanford Group","lat":"47.6115","lon":"-122.1162","state":"Washington","zip":"98008","city":"Bellevue","address":"9324 Elgar Way","hours":"6:09 PM","beers":54},
{"id":"909a824c-1e44-4adc-bc1b-0458c37e8768","name":"Sipes-Corwin","lat":"47.8599","lon":"-122.2848","state":"Washington","zip":"98206","city":"Everett","address":"3 Clyde Gallagher Park","hours":"8:04 AM","beers":84},
{"id":"975a4f78-4726-4e79-b3c7-3d1196d87c81","name":"Murazik Inc","lat":"47.2484","lon":"-122.4644","state":"Washington","zip":"98405","city":"Tacoma","address":"8701 Huxley Parkway","hours":"9:19 PM","beers":72},
{"id":"b37923e4-9995-4b52-affe-fed53a740257","name":"Franecki, Quigley and Pouros","lat":"45.8016","lon":"-122.5203","state":"Washington","zip":"98687","city":"Vancouver","address":"88 Onsgard Crossing","hours":"5:15 PM","beers":26},
{"id":"8da49299-c21e-4f58-9da0-edfad7d6b7ab","name":"Fahey, Nader and Lockman","lat":"47.6536","lon":"-117.4317","state":"Washington","zip":"99260","city":"Spokane","address":"4 Clemons Way","hours":"9:51 PM","beers":38},
{"id":"192c5938-69f6-43c7-a2d7-eb354c7251a3","name":"Lueilwitz LLC","lat":"45.8016","lon":"-122.5203","state":"Washington","zip":"98687","city":"Vancouver","address":"04 Dottie Crossing","hours":"1:24 PM","beers":67},
{"id":"b7c12d61-e9bd-4239-956e-365e00621ac1","name":"Jerde and Sons","lat":"45.8016","lon":"-122.5203","state":"Washington","zip":"98687","city":"Vancouver","address":"28 Havey Drive","hours":"7:29 PM","beers":3},
{"id":"bf8aa161-a66e-45cf-b048-5d3f221c471d","name":"Boyle-Walker","lat":"47.6536","lon":"-117.4317","state":"Washington","zip":"99220","city":"Spokane","address":"612 Valley Edge Terrace","hours":"9:18 AM","beers":71},
{"id":"cc4d4862-ec7d-4eab-b79c-7e81200290ef","name":"Jacobson, Schmitt and Stokes","lat":"45.6644","lon":"-122.5212","state":"Washington","zip":"98682","city":"Vancouver","address":"7070 Heath Alley","hours":"5:00 AM","beers":83},
{"id":"6e097749-0fe3-4dba-b471-088e7ffb26ce","name":"Klocko-Deckow","lat":"47.6564","lon":"-122.3048","state":"Washington","zip":"98195","city":"Seattle","address":"295 Kenwood Park","hours":"6:55 PM","beers":69},
{"id":"a4b0aeef-f461-4028-9064-bac1019f8417","name":"Zemlak and Sons","lat":"47.1042","lon":"-122.87","state":"Washington","zip":"98506","city":"Olympia","address":"42858 Hanson Plaza","hours":"8:32 AM","beers":99},
{"id":"22904eb5-c8b2-47c7-a115-5d55c7a7c661","name":"Reinger, Reilly and Boyer","lat":"47.2061","lon":"-122.4822","state":"Washington","zip":"98417","city":"Tacoma","address":"50810 Dahle Way","hours":"5:06 AM","beers":100},
{"id":"97a90341-5450-4bec-ad00-de152079b2ce","name":"Haley-Fisher","lat":"45.6644","lon":"-122.5212","state":"Washington","zip":"98682","city":"Vancouver","address":"1 Caliangt Junction","hours":"7:48 AM","beers":32},
{"id":"d9278e21-95d9-4146-8f7a-3546ade8167a","name":"Renner-Hettinger","lat":"47.6536","lon":"-117.4317","state":"Washington","zip":"99252","city":"Spokane","address":"372 Spenser Trail","hours":"12:01 PM","beers":18},
{"id":"7af324d6-58ec-4314-92bb-1919de57dd8e","name":"Sipes-McLaughlin","lat":"47.0662","lon":"-122.1132","state":"Washington","zip":"98411","city":"Tacoma","address":"3331 Clyde Gallagher Drive","hours":"7:43 PM","beers":100},
{"id":"072f5971-face-41ed-984f-42517cfbec9e","name":"Towne-Kertzmann","lat":"47.6536","lon":"-117.4317","state":"Washington","zip":"99210","city":"Spokane","address":"0 Jay Point","hours":"12:32 PM","beers":71},
{"id":"9a8acc88-9854-44f1-8da3-12abba04031b","name":"Stokes, Rowe and Harber","lat":"47.6964","lon":"-117.4399","state":"Washington","zip":"99205","city":"Spokane","address":"60 Hoard Center","hours":"4:20 PM","beers":20},
{"id":"c2e2ed0a-bd45-4d63-8c0a-535167d2d8bd","name":"Mante, Rodriguez and Jerde","lat":"47.6063","lon":"-122.3308","state":"Washington","zip":"98127","city":"Seattle","address":"4511 American Pass","hours":"8:10 PM","beers":10},
{"id":"d1f9238a-f041-4d40-a3cd-723325748e72","name":"Bosco Inc","lat":"47.1591","lon":"-122.5485","state":"Washington","zip":"98498","city":"Lakewood","address":"35 Summit Terrace","hours":"3:46 PM","beers":14},
{"id":"b387a5dc-5e86-413d-98d5-6a5e0b560909","name":"Runte-Nikolaus","lat":"47.4511","lon":"-122.353","state":"Washington","zip":"98166","city":"Seattle","address":"0 Ronald Regan Terrace","hours":"7:57 PM","beers":100},
{"id":"4479eede-7282-4c4e-ab32-4529cf8ba45f","name":"Frami-Tillman","lat":"47.6339","lon":"-122.3476","state":"Washington","zip":"98109","city":"Seattle","address":"48192 Cordelia Pass","hours":"5:52 PM","beers":84},
{"id":"5b9865f7-ba1c-4b20-a149-5cbe8241ac99","name":"Hayes Inc","lat":"47.6151","lon":"-122.3447","state":"Washington","zip":"98121","city":"Seattle","address":"85 Sunnyside Lane","hours":"2:42 PM","beers":24},
{"id":"efd64517-f866-45ce-91b0-3622a76c13ab","name":"Bruen, Farrell and Bayer","lat":"47.1126","lon":"-122.7794","state":"Washington","zip":"98516","city":"Olympia","address":"0 Melby Center","hours":"1:07 PM","beers":58},
{"id":"c9afe755-c635-4983-9fe3-e9c3216e270e","name":"Braun-D'Amore","lat":"47.3081","lon":"-122.4185","state":"Washington","zip":"98442","city":"Tacoma","address":"75 International Drive","hours":"10:25 PM","beers":98},
{"id":"041a728b-387e-4c38-ac48-5256ab3c8538","name":"Kautzer, Kertzmann and Hoeger","lat":"47.6151","lon":"-122.3447","state":"Washington","zip":"98121","city":"Seattle","address":"34151 Hauk Road","hours":"9:52 PM","beers":69},
{"id":"52edb9a5-4396-47e5-bfb8-2843766cd81b","name":"Kertzmann, Ritchie and Johns","lat":"47.0662","lon":"-122.1132","state":"Washington","zip":"98481","city":"Tacoma","address":"65 Sachtjen Avenue","hours":"7:14 PM","beers":11},
{"id":"6b06b63d-f397-479b-8436-1131d3c22956","name":"Dickens, Crona and Brown","lat":"47.6536","lon":"-117.4317","state":"Washington","zip":"99220","city":"Spokane","address":"088 Dakota Junction","hours":"2:52 PM","beers":27},
{"id":"4c91ec9e-d254-4b53-9cc5-bed554139016","name":"Walter Inc","lat":"47.6036","lon":"-122.3256","state":"Washington","zip":"98104","city":"Seattle","address":"1 Gale Plaza","hours":"5:06 PM","beers":4},
{"id":"4693c8e8-610b-4d24-a572-aef5178113b1","name":"Pollich-MacGyver","lat":"47.2484","lon":"-122.4644","state":"Washington","zip":"98405","city":"Tacoma","address":"961 Arrowood Parkway","hours":"10:46 PM","beers":21},
{"id":"0f73b7ea-d6c3-4931-b715-1b33cce42bd3","name":"Green and Sons","lat":"47.0662","lon":"-122.1132","state":"Washington","zip":"98411","city":"Tacoma","address":"5170 Hayes Parkway","hours":"11:33 PM","beers":23},
{"id":"f828acf3-c43b-4702-8379-65758c0ddb7b","name":"Gutkowski Inc","lat":"47.6036","lon":"-122.3256","state":"Washington","zip":"98104","city":"Seattle","address":"496 Di Loreto Center","hours":"10:12 AM","beers":52},
{"id":"4b3c826c-9071-440c-86af-5f38da848430","name":"Cronin-Hartmann","lat":"47.368","lon":"-122.1206","state":"Washington","zip":"98042","city":"Kent","address":"32 South Plaza","hours":"7:33 PM","beers":95},
{"id":"2b38a810-8748-4a16-99c3-02f8414e8240","name":"Lowe-Lynch","lat":"47.4323","lon":"-121.8034","state":"Washington","zip":"98185","city":"Seattle","address":"24132 Farwell Point","hours":"9:35 AM","beers":35},
{"id":"0e15987d-908a-4fbc-80cf-99a5a4b77a07","name":"Erdman-Pollich","lat":"47.6115","lon":"-122.1162","state":"Washington","zip":"98008","city":"Bellevue","address":"63622 Briar Crest Park","hours":"10:58 PM","beers":36},
{"id":"20a254ca-a636-4906-be22-f29b88368adf","name":"Johns-Swift","lat":"47.7161","lon":"-122.3004","state":"Washington","zip":"98175","city":"Seattle","address":"33 Debs Pass","hours":"9:26 PM","beers":65},
{"id":"a04faa11-f45f-45e9-84f7-a1ef32a1cdc6","name":"Wisozk, Kutch and Connelly","lat":"47.6849","lon":"-122.2968","state":"Washington","zip":"98115","city":"Seattle","address":"555 Atwood Avenue","hours":"10:46 AM","beers":76},
{"id":"6b15df14-841e-4b8d-a65e-5e02ca1c6ccd","name":"Bergstrom, Littel and Rath","lat":"45.6644","lon":"-122.5212","state":"Washington","zip":"98682","city":"Vancouver","address":"42 Redwing Drive","hours":"2:47 PM","beers":8},
{"id":"546f0843-da7b-4c58-9503-5ace315df0f1","name":"Hackett, Ryan and Olson","lat":"47.368","lon":"-122.1206","state":"Washington","zip":"98042","city":"Kent","address":"932 Hooker Alley","hours":"11:17 PM","beers":92},
{"id":"677bf21f-c182-4c02-87b9-7161e27e1afd","name":"White-Kuhic","lat":"47.6536","lon":"-117.4317","state":"Washington","zip":"99260","city":"Spokane","address":"3 Debs Parkway","hours":"9:32 PM","beers":66},
{"id":"848a85b1-fc3b-4043-aebb-1f11e4e84e7a","name":"Fisher, Kuvalis and McKenzie","lat":"47.6063","lon":"-122.3308","state":"Washington","zip":"98127","city":"Seattle","address":"47727 Forest Run Hill","hours":"8:12 PM","beers":92},
{"id":"f6f2fa6b-9b8e-47bd-a81f-c2954d8f3eda","name":"Sauer, Dicki and Heathcote","lat":"45.8016","lon":"-122.5203","state":"Washington","zip":"98687","city":"Vancouver","address":"63756 Kennedy Hill","hours":"1:43 PM","beers":16},
{"id":"39e182e9-52e7-40cd-9681-7ac083df60ee","name":"Harber, Hauck and Renner","lat":"47.6036","lon":"-122.3256","state":"Washington","zip":"98104","city":"Seattle","address":"936 Briar Crest Place","hours":"3:32 PM","beers":92},
{"id":"36cf1d73-66c3-43cb-8ed8-c0c0c915218b","name":"Doyle Group","lat":"47.4497","lon":"-122.3076","state":"Washington","zip":"98158","city":"Seattle","address":"96 Bultman Place","hours":"7:24 AM","beers":50},
{"id":"98cf0229-f910-4941-94bd-a0bcc9488eba","name":"Dietrich, Cronin and Kub","lat":"47.1591","lon":"-122.5485","state":"Washington","zip":"98498","city":"Lakewood","address":"312 Manufacturers Park","hours":"6:04 AM","beers":80},
{"id":"2a130dc8-b732-4107-852c-0c0d18fc2f88","name":"Ratke-Veum","lat":"47.4441","lon":"-122.3249","state":"Washington","zip":"98148","city":"Seattle","address":"83258 Sunfield Plaza","hours":"7:08 AM","beers":56},
{"id":"bf9c4e06-42b0-4a86-8c6b-a6ebdc3c34f4","name":"Fay and Sons","lat":"47.4497","lon":"-122.3076","state":"Washington","zip":"98158","city":"Seattle","address":"22 Dixon Junction","hours":"10:47 AM","beers":2},
{"id":"ced38f80-6f54-4319-b536-8b9f7f919334","name":"Bogisich-Mills","lat":"47.7377","lon":"-122.3431","state":"Washington","zip":"98133","city":"Seattle","address":"44256 Chinook Drive","hours":"5:32 AM","beers":43},
{"id":"cc69d4e6-0e2c-40ca-b5a0-1cb9d4e416b8","name":"Cruickshank, Harris and Mosciski","lat":"47.6063","lon":"-122.3308","state":"Washington","zip":"98127","city":"Seattle","address":"3 Basil Way","hours":"11:36 PM","beers":64},
{"id":"d2c7ef5c-f2f5-4053-9f06-bc11693a8b9d","name":"Schneider Group","lat":"47.6151","lon":"-122.3447","state":"Washington","zip":"98121","city":"Seattle","address":"36 Cordelia Place","hours":"5:13 AM","beers":21},
{"id":"242ab380-f053-40d7-b08b-420ed92f08fc","name":"Greenholt Inc","lat":"47.7377","lon":"-122.3431","state":"Washington","zip":"98133","city":"Seattle","address":"498 Schmedeman Alley","hours":"11:51 AM","beers":47},
{"id":"7091db51-7042-4ccb-a438-5f465a682b45","name":"Zemlak, Marquardt and Denesik","lat":"45.6644","lon":"-122.5212","state":"Washington","zip":"98682","city":"Vancouver","address":"68 Cherokee Road","hours":"9:52 PM","beers":83},
{"id":"b00dfa81-07f6-4c8b-87af-5d6df299212d","name":"Nolan Inc","lat":"47.6964","lon":"-117.4399","state":"Washington","zip":"99205","city":"Spokane","address":"9880 Hollow Ridge Terrace","hours":"6:21 AM","beers":42},
{"id":"553fa433-71de-4afc-83b6-60cb391bf573","name":"Runolfsson Group","lat":"47.6536","lon":"-117.4317","state":"Washington","zip":"99260","city":"Spokane","address":"181 Ridgeview Junction","hours":"5:41 PM","beers":4},
{"id":"536bf10e-a5ff-48b8-ad6e-01c52032280d","name":"Murray LLC","lat":"47.7377","lon":"-122.3431","state":"Washington","zip":"98133","city":"Seattle","address":"623 Arapahoe Point","hours":"2:29 PM","beers":32},
{"id":"4d365709-bc8d-4202-a214-1e30ab5c322b","name":"McGlynn-Herzog","lat":"47.4441","lon":"-122.3249","state":"Washington","zip":"98148","city":"Seattle","address":"40 La Follette Way","hours":"6:52 AM","beers":35},
{"id":"97c28758-68bf-425c-82da-408e3e444447","name":"Muller-Gerlach","lat":"47.4497","lon":"-122.3076","state":"Washington","zip":"98158","city":"Seattle","address":"6 Northfield Terrace","hours":"4:58 PM","beers":30},
{"id":"0b7fc2e8-896d-43c1-825a-697920788d1a","name":"Keebler Group","lat":"47.6964","lon":"-117.4399","state":"Washington","zip":"99205","city":"Spokane","address":"1947 Mayfield Drive","hours":"7:37 PM","beers":10},
{"id":"3b1cc47b-8bab-4073-bc71-1189aa735174","name":"McDermott-Schuster","lat":"47.7161","lon":"-122.3004","state":"Washington","zip":"98175","city":"Seattle","address":"8 Ilene Street","hours":"10:52 PM","beers":50},
{"id":"1d930d7c-146e-4305-a130-8549362306a8","name":"Veum LLC","lat":"47.6036","lon":"-122.3256","state":"Washington","zip":"98104","city":"Seattle","address":"409 Laurel Pass","hours":"9:37 PM","beers":71},
{"id":"e30c3875-de2d-4e50-b9fd-ae43c4faa885","name":"Littel and Sons","lat":"47.4323","lon":"-121.8034","state":"Washington","zip":"98140","city":"Seattle","address":"7 Morrow Plaza","hours":"5:23 AM","beers":93},
{"id":"4f486f8d-f9f7-4296-b482-23a675d81ca7","name":"Klocko Inc","lat":"47.6536","lon":"-117.4317","state":"Washington","zip":"99210","city":"Spokane","address":"4 Almo Court","hours":"11:50 PM","beers":53},
{"id":"156f1ba0-03db-4b26-8c5f-6efdfe2859b4","name":"Purdy and Sons","lat":"47.6536","lon":"-117.4317","state":"Washington","zip":"99252","city":"Spokane","address":"5 Little Fleur Hill","hours":"7:48 PM","beers":72},
{"id":"6983dcd3-a6fd-4fd8-9b75-af57b371b9f4","name":"Hodkiewicz, Larkin and Jones","lat":"47.0662","lon":"-122.1132","state":"Washington","zip":"98481","city":"Tacoma","address":"2796 Sycamore Place","hours":"5:11 AM","beers":51},
{"id":"2aa64bdc-fca5-4e2e-8539-e3a5ca920900","name":"Huels, Lindgren and Rowe","lat":"47.0662","lon":"-122.1132","state":"Washington","zip":"98481","city":"Tacoma","address":"65744 Eliot Terrace","hours":"2:07 PM","beers":51},
{"id":"e4b4f2ba-0236-4b00-bee0-152b039192d8","name":"Haag-Raynor","lat":"47.4511","lon":"-122.353","state":"Washington","zip":"98166","city":"Seattle","address":"7 Armistice Center","hours":"8:22 PM","beers":82},
{"id":"fe49374b-a722-4777-a91a-0d6ea2c5c4bb","name":"Armstrong, Strosin and Kautzer","lat":"47.6536","lon":"-117.4317","state":"Washington","zip":"99220","city":"Spokane","address":"617 Novick Junction","hours":"11:05 PM","beers":1},
{"id":"ff7bfcbf-eddf-4d50-83cf-ae5fa82856cc","name":"Kerluke, Lindgren and Flatley","lat":"47.4511","lon":"-122.353","state":"Washington","zip":"98166","city":"Seattle","address":"2489 Manufacturers Trail","hours":"3:56 PM","beers":99},
{"id":"ac860397-9082-45be-95c3-76af3e197801","name":"Douglas, Cummings and Haag","lat":"47.4511","lon":"-122.353","state":"Washington","zip":"98166","city":"Seattle","address":"32 Dottie Junction","hours":"10:18 AM","beers":68},
{"id":"a35828df-8edb-400d-8958-e87c2b44c5f9","name":"Wyman, Kulas and Cartwright","lat":"47.1441","lon":"-122.4434","state":"Washington","zip":"98447","city":"Tacoma","address":"6203 Sundown Park","hours":"10:47 PM","beers":53},
{"id":"31bd8221-f3db-4536-99f7-7cc09db707f4","name":"Haley-Schuppe","lat":"47.4441","lon":"-122.3249","state":"Washington","zip":"98148","city":"Seattle","address":"65 Kingsford Way","hours":"9:18 AM","beers":5},
{"id":"4011512f-e6e2-4294-a3e7-a4be9b7b8faf","name":"Sipes Group","lat":"47.1042","lon":"-122.87","state":"Washington","zip":"98506","city":"Olympia","address":"2 Grover Hill","hours":"8:41 PM","beers":73},
{"id":"7701bf1e-098b-44f1-b4cc-68b7bcfbeb45","name":"Effertz, Conn and Larkin","lat":"47.6063","lon":"-122.3308","state":"Washington","zip":"98127","city":"Seattle","address":"44 Golf Center","hours":"9:36 AM","beers":11},
{"id":"694427d9-4a4c-453a-83ae-5e1826eea871","name":"Wisozk, Kuhic and Russel","lat":"47.4441","lon":"-122.3249","state":"Washington","zip":"98148","city":"Seattle","address":"884 Continental Road","hours":"2:00 PM","beers":73},
{"id":"48d0df3c-45fe-4b1a-926e-81a9c927031f","name":"Stanton, Orn and Kirlin","lat":"47.6564","lon":"-122.3048","state":"Washington","zip":"98195","city":"Seattle","address":"267 Colorado Center","hours":"12:36 PM","beers":3},
{"id":"324c6776-3d4e-41ee-bcc5-e166833cc3da","name":"Douglas Group","lat":"45.6644","lon":"-122.5212","state":"Washington","zip":"98682","city":"Vancouver","address":"6 Atwood Parkway","hours":"11:11 PM","beers":23},
{"id":"fb361ed9-d12d-49da-9553-ffe9b5631991","name":"Halvorson-Feil","lat":"47.2325","lon":"-122.3594","state":"Washington","zip":"98424","city":"Tacoma","address":"19 Rieder Trail","hours":"10:24 PM","beers":3},
{"id":"47e3df39-0cc2-405d-ba17-c9bb7ec555c8","name":"Kshlerin-Nikolaus","lat":"47.2325","lon":"-122.3594","state":"Washington","zip":"98424","city":"Tacoma","address":"4573 Charing Cross Crossing","hours":"6:02 AM","beers":82},
{"id":"f41233e4-de61-43e8-93ab-2d6bd644c5c0","name":"Dickinson, Schaden and Kassulke","lat":"47.8599","lon":"-122.2848","state":"Washington","zip":"98206","city":"Everett","address":"71823 Ilene Trail","hours":"2:34 PM","beers":56},
{"id":"e4f95a25-6637-4b85-b5a6-cfd19f654bde","name":"Labadie, Kutch and Mayer","lat":"47.1591","lon":"-122.5485","state":"Washington","zip":"98498","city":"Lakewood","address":"7 Express Alley","hours":"3:56 PM","beers":80},
{"id":"9bb5349b-22ad-4fc0-8b92-92b3276157db","name":"Fisher and Sons","lat":"47.2325","lon":"-122.3594","state":"Washington","zip":"98424","city":"Tacoma","address":"98 Dexter Junction","hours":"9:18 PM","beers":23},
{"id":"4b3f086b-315d-4463-a9ec-bbd141c1db59","name":"Pfeffer-Lueilwitz","lat":"47.368","lon":"-122.1206","state":"Washington","zip":"98042","city":"Kent","address":"83 Forest Dale Hill","hours":"8:52 AM","beers":16},
{"id":"bd1bc252-9668-4a5f-9ea4-49d7a0b07791","name":"Bins, Lind and Walsh","lat":"47.368","lon":"-122.1206","state":"Washington","zip":"98042","city":"Kent","address":"97 Lotheville Pass","hours":"10:03 AM","beers":36},
{"id":"94969140-3541-4ee7-bf5b-3ceb4ab046e1","name":"Hartmann LLC","lat":"47.6063","lon":"-122.3308","state":"Washington","zip":"98127","city":"Seattle","address":"36230 Bayside Parkway","hours":"9:53 PM","beers":5},
{"id":"fb7541b3-48af-4085-812d-2bfda1246116","name":"Schultz, Schmitt and Hoeger","lat":"47.6151","lon":"-122.3447","state":"Washington","zip":"98121","city":"Seattle","address":"088 Ramsey Hill","hours":"6:07 AM","beers":59},
{"id":"75c77a55-c550-4409-b292-e3905d69b3b7","name":"O'Hara, Weber and Moen","lat":"47.4511","lon":"-122.353","state":"Washington","zip":"98166","city":"Seattle","address":"023 Ryan Hill","hours":"5:41 AM","beers":92},
{"id":"14f4cda6-80b0-452a-b011-140549af60d8","name":"Christiansen Inc","lat":"47.6536","lon":"-117.4317","state":"Washington","zip":"99210","city":"Spokane","address":"426 Luster Center","hours":"4:43 PM","beers":92},
{"id":"f3e7dc9a-3c55-49c8-974e-3129287ed8ca","name":"O'Conner-Crist","lat":"45.8016","lon":"-122.5203","state":"Washington","zip":"98687","city":"Vancouver","address":"1 Talisman Terrace","hours":"11:10 AM","beers":57},
{"id":"c7d89f8a-b7f0-423a-92bf-bf4f4c653b60","name":"Walsh-Schinner","lat":"47.4323","lon":"-121.8034","state":"Washington","zip":"98185","city":"Seattle","address":"6188 Basil Road","hours":"9:01 PM","beers":30},
{"id":"f55851b0-5e01-4044-9bfa-adbdf03e7f38","name":"Mante and Sons","lat":"47.2325","lon":"-122.3594","state":"Washington","zip":"98424","city":"Tacoma","address":"255 Fremont Avenue","hours":"7:10 AM","beers":40},
{"id":"21e38d95-1cfc-4a8a-90ac-92461b8ffd92","name":"Zulauf-D'Amore","lat":"47.0662","lon":"-122.1132","state":"Washington","zip":"98481","city":"Tacoma","address":"38023 Pennsylvania Road","hours":"11:51 PM","beers":19},
{"id":"6bdd1a3e-e8c9-45b6-b202-050acf6754b6","name":"Lakin-O'Connell","lat":"47.4441","lon":"-122.3249","state":"Washington","zip":"98148","city":"Seattle","address":"0 Crescent Oaks Point","hours":"8:12 AM","beers":2},
{"id":"2f79ed3e-ad44-437a-be32-86e4b01f1795","name":"Bode-Nitzsche","lat":"47.0662","lon":"-122.1132","state":"Washington","zip":"98464","city":"Tacoma","address":"159 Grim Parkway","hours":"7:11 PM","beers":74},
{"id":"d8b4fc15-f00b-407c-84af-515427de29f8","name":"Runte Group","lat":"47.4323","lon":"-121.8034","state":"Washington","zip":"98185","city":"Seattle","address":"139 Jay Road","hours":"6:28 PM","beers":1},
{"id":"81faf13d-9594-4547-bbd6-0cd7c95b0c4c","name":"Baumbach and Sons","lat":"47.2325","lon":"-122.3594","state":"Washington","zip":"98424","city":"Tacoma","address":"0 Shoshone Court","hours":"9:44 PM","beers":8},
{"id":"79244faa-5a59-4589-a725-0d28f4e9b87f","name":"Walker Group","lat":"47.6115","lon":"-122.1162","state":"Washington","zip":"98008","city":"Bellevue","address":"4 Maywood Point","hours":"6:59 PM","beers":25},
{"id":"57ac2a04-de2e-46c6-9113-af10358d4214","name":"Bayer, Gorczany and Dooley","lat":"47.2061","lon":"-122.4822","state":"Washington","zip":"98417","city":"Tacoma","address":"512 Manitowish Avenue","hours":"9:03 AM","beers":63},
{"id":"d3712831-c818-4405-9210-e90e004300b8","name":"Medhurst-Schumm","lat":"47.7377","lon":"-122.3431","state":"Washington","zip":"98133","city":"Seattle","address":"57 Steensland Road","hours":"9:55 PM","beers":41},
{"id":"0500bb1f-de91-48d9-ae63-d48c8c734359","name":"Leffler, Pagac and Grady","lat":"47.0662","lon":"-122.1132","state":"Washington","zip":"98481","city":"Tacoma","address":"3842 Blackbird Road","hours":"12:24 PM","beers":30},
{"id":"96314944-c597-447d-b6ef-fad48c50dec0","name":"Anderson, Bogisich and Runolfsson","lat":"47.2484","lon":"-122.4644","state":"Washington","zip":"98405","city":"Tacoma","address":"6899 Darwin Park","hours":"7:09 AM","beers":93},
{"id":"84822f72-a7da-43e9-8d07-c3aaf713dcc3","name":"Altenwerth, Lubowitz and Tromp","lat":"47.7161","lon":"-122.3004","state":"Washington","zip":"98175","city":"Seattle","address":"3668 Sachtjen Avenue","hours":"7:34 AM","beers":84},
{"id":"dfcd1b28-5052-4658-8412-52dc5f1347c2","name":"Robel-Thompson","lat":"47.3081","lon":"-122.4185","state":"Washington","zip":"98442","city":"Tacoma","address":"4200 Golf Course Alley","hours":"7:25 AM","beers":78},
{"id":"ccce74cb-1865-49fa-991f-9dfff192a4f8","name":"Ritchie, Batz and Spencer","lat":"47.2325","lon":"-122.3594","state":"Washington","zip":"98424","city":"Tacoma","address":"153 Esch Hill","hours":"6:09 PM","beers":91},
{"id":"3969e1d7-ae97-49d9-87de-1f04bd1047f0","name":"Boyle Group","lat":"47.6063","lon":"-122.3308","state":"Washington","zip":"98127","city":"Seattle","address":"8974 Sauthoff Terrace","hours":"6:28 PM","beers":16},
{"id":"fae56f88-0459-4635-abe4-c18867104de1","name":"Pollich, Kohler and Gislason","lat":"47.1126","lon":"-122.7794","state":"Washington","zip":"98516","city":"Olympia","address":"47894 Coleman Plaza","hours":"2:14 PM","beers":89},
{"id":"d241fdc4-d98e-41a5-8f6a-90651ab4a61b","name":"Pfeffer, Douglas and Bogan","lat":"47.4323","lon":"-121.8034","state":"Washington","zip":"98140","city":"Seattle","address":"2 Oneill Park","hours":"7:39 AM","beers":22},
{"id":"0a1dbd24-5316-48e2-a418-9925a3094345","name":"Satterfield-Dickens","lat":"47.7377","lon":"-122.3431","state":"Washington","zip":"98133","city":"Seattle","address":"933 Shoshone Parkway","hours":"2:47 PM","beers":54},
{"id":"97c4c663-5456-43f6-b394-04780b33ff8b","name":"Volkman, McClure and Davis","lat":"47.0662","lon":"-122.1132","state":"Washington","zip":"98464","city":"Tacoma","address":"9 Hanson Way","hours":"11:23 AM","beers":18},
{"id":"89968295-6271-4b00-8c61-d2f54438c23f","name":"Fritsch LLC","lat":"46.6288","lon":"-120.574","state":"Washington","zip":"98907","city":"Yakima","address":"1 Nova Drive","hours":"9:10 PM","beers":99},
{"id":"b2834aae-d126-4760-899c-3a60cdf634d3","name":"Fay-Farrell","lat":"47.8599","lon":"-122.2848","state":"Washington","zip":"98206","city":"Everett","address":"0556 Laurel Parkway","hours":"4:01 PM","beers":91},
{"id":"12469725-7750-4067-9bf4-78cc2b1839ce","name":"Crooks, Nitzsche and Watsica","lat":"47.6849","lon":"-122.2968","state":"Washington","zip":"98115","city":"Seattle","address":"38043 Browning Crossing","hours":"8:32 AM","beers":25},
{"id":"a5c17ffd-0e90-4ef3-b5d3-d105525244a4","name":"Grady Inc","lat":"47.368","lon":"-122.1206","state":"Washington","zip":"98042","city":"Kent","address":"6571 Amoth Court","hours":"1:31 PM","beers":4},
{"id":"1effa512-8764-4ef0-b556-03fb4cf5014e","name":"Osinski, Rowe and Sawayn","lat":"47.6536","lon":"-117.4317","state":"Washington","zip":"99252","city":"Spokane","address":"14 Becker Plaza","hours":"1:07 PM","beers":70},
{"id":"dc8a6a95-b8d2-4c78-a059-ecb0411dd343","name":"Donnelly and Sons","lat":"47.2325","lon":"-122.3594","state":"Washington","zip":"98424","city":"Tacoma","address":"714 Merry Road","hours":"4:23 PM","beers":23},
{"id":"61a30940-27d7-4dbf-8bd1-51f5c288109d","name":"Spinka, Hamill and Nikolaus","lat":"47.6036","lon":"-122.3256","state":"Washington","zip":"98104","city":"Seattle","address":"31 Green Hill","hours":"9:44 PM","beers":20},
{"id":"a6f5b58e-ade0-417d-8cd1-5743e21773bc","name":"Wisozk, Kunde and Greenholt","lat":"47.2061","lon":"-122.4822","state":"Washington","zip":"98417","city":"Tacoma","address":"777 Iowa Drive","hours":"5:40 AM","beers":10},
{"id":"4a3f2fbc-7bf9-4d67-bb6f-9cb8e2333a0d","name":"Tremblay, Grimes and Kessler","lat":"47.7161","lon":"-122.3004","state":"Washington","zip":"98175","city":"Seattle","address":"44447 Carpenter Avenue","hours":"12:10 PM","beers":9},
{"id":"7edd166e-2c43-41d4-80cf-aa4ccbe8283c","name":"Barton-Brown","lat":"46.6288","lon":"-120.574","state":"Washington","zip":"98907","city":"Yakima","address":"0578 Oxford Pass","hours":"1:55 PM","beers":18},
{"id":"834ce223-cb21-4703-a914-32127aeaed71","name":"Rolfson-Dach","lat":"47.0662","lon":"-122.1132","state":"Washington","zip":"98411","city":"Tacoma","address":"92696 Nobel Circle","hours":"6:55 AM","beers":47},
{"id":"b8ef6e5f-29f2-4681-a83f-4ad4ee32bfde","name":"Mueller, Bechtelar and Jacobi","lat":"47.6151","lon":"-122.3447","state":"Washington","zip":"98121","city":"Seattle","address":"760 Sachs Place","hours":"8:50 PM","beers":44},
{"id":"07fbaada-65dc-4603-a5e7-29def972e961","name":"Reichert, Ledner and Bode","lat":"47.368","lon":"-122.1206","state":"Washington","zip":"98042","city":"Kent","address":"1769 Orin Park","hours":"5:13 AM","beers":94},
{"id":"493cdd1f-cc5a-44cf-be68-7014ef12803f","name":"Yundt Inc","lat":"47.4323","lon":"-121.8034","state":"Washington","zip":"98140","city":"Seattle","address":"8718 Eastwood Parkway","hours":"9:13 PM","beers":90},
{"id":"c0dcf0ba-dae1-48be-b2ce-7c643c03a6b5","name":"Hahn, Keebler and Nolan","lat":"47.0662","lon":"-122.1132","state":"Washington","zip":"98411","city":"Tacoma","address":"59 Hansons Center","hours":"6:18 AM","beers":17},
{"id":"daf4ea86-2670-4894-923d-b9c30fb8fe59","name":"Jenkins, Carter and Oberbrunner","lat":"47.4323","lon":"-121.8034","state":"Washington","zip":"98185","city":"Seattle","address":"673 Dryden Circle","hours":"9:30 PM","beers":63},
{"id":"4f554242-d102-4fd9-8899-fe668221187c","name":"Smith, Kris and Bogisich","lat":"45.8016","lon":"-122.5203","state":"Washington","zip":"98687","city":"Vancouver","address":"2628 Golf Park","hours":"12:02 PM","beers":94},
{"id":"62b5b09d-e8ed-4df6-9183-474e8b8b2a02","name":"Schinner-Lebsack","lat":"47.4323","lon":"-121.8034","state":"Washington","zip":"98185","city":"Seattle","address":"6 Center Road","hours":"5:27 PM","beers":18},
{"id":"3afa9454-0268-4290-a2f8-1c8779b20f70","name":"Harris, Prohaska and Smitham","lat":"45.6231","lon":"-122.5767","state":"Washington","zip":"98664","city":"Vancouver","address":"036 Bayside Court","hours":"3:12 PM","beers":81},
{"id":"72e23bb2-b6fc-494a-be54-fa37dcdd2283","name":"Krajcik LLC","lat":"47.6849","lon":"-122.2968","state":"Washington","zip":"98115","city":"Seattle","address":"3 Duke Park","hours":"4:14 PM","beers":83},
{"id":"cbdbae2a-5111-41f8-8f2e-f0041086147c","name":"Roberts, Wunsch and Boyer","lat":"45.6231","lon":"-122.5767","state":"Washington","zip":"98664","city":"Vancouver","address":"7440 Morrow Street","hours":"6:11 PM","beers":47},
{"id":"47ee1273-9b09-43ea-9c21-a08fd595ea4a","name":"Hills, Koss and Jacobson","lat":"47.6536","lon":"-117.4317","state":"Washington","zip":"99215","city":"Spokane","address":"6445 Duke Park","hours":"7:23 PM","beers":31},
{"id":"0bebc91b-ce8d-4f50-ba29-e78f0a3a021c","name":"Schinner-Wehner","lat":"47.6536","lon":"-117.4317","state":"Washington","zip":"99252","city":"Spokane","address":"7 Truax Park","hours":"8:27 AM","beers":18},
{"id":"1b9e756c-a932-4086-a4b6-4ff3fe0a5ad3","name":"Hintz-Lubowitz","lat":"47.3081","lon":"-122.4185","state":"Washington","zip":"98442","city":"Tacoma","address":"9 New Castle Avenue","hours":"8:00 PM","beers":99},
{"id":"2fa5b029-c325-4d68-8aef-b39e3845d2d4","name":"Paucek LLC","lat":"47.6849","lon":"-122.2968","state":"Washington","zip":"98115","city":"Seattle","address":"0 Lyons Drive","hours":"2:04 PM","beers":72},
{"id":"5345ce04-6300-4c95-8473-c3df0ed1fb81","name":"Block-Schuppe","lat":"47.0662","lon":"-122.1132","state":"Washington","zip":"98464","city":"Tacoma","address":"6883 Schmedeman Circle","hours":"12:31 PM","beers":16},
{"id":"77b848d2-c23a-4053-85a7-829b82069c62","name":"Kulas-Schumm","lat":"47.6536","lon":"-117.4317","state":"Washington","zip":"99220","city":"Spokane","address":"53 Vahlen Parkway","hours":"10:39 AM","beers":79},
{"id":"e63de360-ee1c-4ed3-ba43-e15acd4b0a7d","name":"McLaughlin, Rutherford and Ledner","lat":"46.6288","lon":"-120.574","state":"Washington","zip":"98907","city":"Yakima","address":"852 Iowa Junction","hours":"7:08 AM","beers":74},
{"id":"a6dee84c-3d4a-48e1-92d7-c43a0785de94","name":"Connelly, Schiller and Zulauf","lat":"47.6063","lon":"-122.3308","state":"Washington","zip":"98127","city":"Seattle","address":"53574 Main Center","hours":"8:06 AM","beers":68},
{"id":"edc6c17c-e1cb-4b57-81b5-006da594889d","name":"Ritchie, Pouros and McKenzie","lat":"47.2061","lon":"-122.4822","state":"Washington","zip":"98417","city":"Tacoma","address":"123 Sage Street","hours":"11:35 AM","beers":14},
{"id":"29a738bc-4b00-4f2a-97e7-a55a3a2a9a20","name":"Bins-Beier","lat":"47.0662","lon":"-122.1132","state":"Washington","zip":"98481","city":"Tacoma","address":"783 John Wall Road","hours":"3:55 PM","beers":82},
{"id":"f05f85f1-b282-40d1-a2c7-b21d2bb1c750","name":"Ruecker-Breitenberg","lat":"47.1591","lon":"-122.5485","state":"Washington","zip":"98498","city":"Lakewood","address":"179 David Road","hours":"4:31 PM","beers":60},
{"id":"188a527a-791f-4807-a510-616f779f7e29","name":"Predovic, Mohr and Reynolds","lat":"47.0662","lon":"-122.1132","state":"Washington","zip":"98464","city":"Tacoma","address":"51960 Logan Street","hours":"7:31 PM","beers":67},
{"id":"e5b7fddc-2511-4b27-8299-164af3951f9c","name":"Cassin LLC","lat":"46.6288","lon":"-120.574","state":"Washington","zip":"98907","city":"Yakima","address":"9285 Leroy Circle","hours":"3:44 PM","beers":84},
{"id":"ffb4d957-ede8-4839-a0d1-44c51ee7af89","name":"Nicolas Group","lat":"47.6536","lon":"-117.4317","state":"Washington","zip":"99252","city":"Spokane","address":"1845 Fairview Road","hours":"10:19 AM","beers":25},
{"id":"343a2618-7444-461d-bb13-00896bd2a673","name":"Osinski-Bednar","lat":"47.6536","lon":"-117.4317","state":"Washington","zip":"99210","city":"Spokane","address":"3 Sullivan Trail","hours":"5:35 AM","beers":55},
{"id":"ca6893d6-bd89-4b4e-9a21-ce64c58943ce","name":"Cremin Inc","lat":"47.4323","lon":"-121.8034","state":"Washington","zip":"98140","city":"Seattle","address":"2997 Gerald Parkway","hours":"5:13 AM","beers":56},
{"id":"7fcbeb33-3ba8-4c4b-b1b5-a9be24a47b35","name":"Christiansen-Russel","lat":"47.1126","lon":"-122.7794","state":"Washington","zip":"98516","city":"Olympia","address":"3793 Ludington Alley","hours":"4:10 PM","beers":27},
{"id":"a6486611-5fca-4acb-be80-df980d4f4b36","name":"Konopelski, Lang and Greenholt","lat":"47.3081","lon":"-122.4185","state":"Washington","zip":"98442","city":"Tacoma","address":"0357 Lerdahl Plaza","hours":"2:26 PM","beers":67},
{"id":"bc67f587-6091-4181-a452-90e405a88d5a","name":"D'Amore LLC","lat":"47.6964","lon":"-117.4399","state":"Washington","zip":"99205","city":"Spokane","address":"793 Northview Center","hours":"3:19 PM","beers":24},
{"id":"83494a7f-6632-40a7-9439-188bc2a30927","name":"Bergstrom-Jast","lat":"47.1591","lon":"-122.5485","state":"Washington","zip":"98498","city":"Lakewood","address":"75 Paget Street","hours":"9:46 AM","beers":94},
{"id":"b0aa64b0-6ebf-484d-ae49-6cee9eddcc1d","name":"Hegmann-Stokes","lat":"47.4511","lon":"-122.353","state":"Washington","zip":"98166","city":"Seattle","address":"5 Meadow Ridge Point","hours":"9:23 AM","beers":92},
{"id":"840dd1c7-de90-4f17-99fd-6d9c49f96492","name":"Sauer-Gusikowski","lat":"47.2325","lon":"-122.3594","state":"Washington","zip":"98424","city":"Tacoma","address":"3596 Bay Point","hours":"2:33 PM","beers":22},
{"id":"21c55ebd-21f1-4096-ac29-71c16a942e15","name":"Shields, Luettgen and Blick","lat":"45.6644","lon":"-122.5212","state":"Washington","zip":"98682","city":"Vancouver","address":"663 Carioca Avenue","hours":"5:46 PM","beers":22},
{"id":"86a99516-f127-436e-9c47-ebe1be8a2a70","name":"Heathcote Group","lat":"47.6536","lon":"-117.4317","state":"Washington","zip":"99220","city":"Spokane","address":"89804 Mitchell Park","hours":"11:06 PM","beers":84},
{"id":"576590e5-a9c8-4635-b532-82942ede080b","name":"Parisian-Feil","lat":"47.4497","lon":"-122.3076","state":"Washington","zip":"98158","city":"Seattle","address":"76 Sugar Circle","hours":"6:07 AM","beers":55},
{"id":"6ffe27ac-fed2-4561-b61d-5f9fdff855ef","name":"Blick-Schaden","lat":"47.6849","lon":"-122.2968","state":"Washington","zip":"98115","city":"Seattle","address":"618 Sommers Junction","hours":"11:32 PM","beers":99},
{"id":"4c9dbcb5-9f44-40ff-adb5-a0b7f91682a7","name":"Larson LLC","lat":"47.6536","lon":"-117.4317","state":"Washington","zip":"99210","city":"Spokane","address":"51 Buell Point","hours":"12:00 PM","beers":51},
{"id":"5e15ccdd-e05b-4136-9491-a5bbff76408e","name":"Raynor, Thiel and Lehner","lat":"47.6151","lon":"-122.3447","state":"Washington","zip":"98121","city":"Seattle","address":"4213 Northport Plaza","hours":"1:11 PM","beers":67},
{"id":"35d74d43-e87e-4ead-800d-08d70a8eac20","name":"Homenick LLC","lat":"46.6288","lon":"-120.574","state":"Washington","zip":"98907","city":"Yakima","address":"93434 Hagan Lane","hours":"6:21 AM","beers":11},
{"id":"5e257c8f-b86b-4eb8-b363-6aa53fb8de69","name":"Cole, Mante and Moore","lat":"47.6036","lon":"-122.3256","state":"Washington","zip":"98104","city":"Seattle","address":"16 Springs Drive","hours":"6:01 PM","beers":43},
{"id":"c4d3804d-3289-42b3-aa53-68e77d7db860","name":"Romaguera-Abbott","lat":"47.1126","lon":"-122.7794","state":"Washington","zip":"98516","city":"Olympia","address":"3 Valley Edge Center","hours":"9:17 PM","beers":46},
{"id":"68031bbd-9141-443d-9fd3-f441c14e035a","name":"Effertz Group","lat":"47.2061","lon":"-122.4822","state":"Washington","zip":"98417","city":"Tacoma","address":"724 Northview Center","hours":"9:36 AM","beers":19},
{"id":"e20eb241-8650-4789-b9ee-c84d5402761f","name":"Baumbach Group","lat":"47.6063","lon":"-122.3308","state":"Washington","zip":"98127","city":"Seattle","address":"4254 Jenna Parkway","hours":"9:20 PM","beers":66},
{"id":"05dbb8be-9472-414b-bfd0-004bd8769a93","name":"Ziemann, Gerlach and Mann","lat":"47.1042","lon":"-122.87","state":"Washington","zip":"98506","city":"Olympia","address":"100 Sycamore Street","hours":"8:34 AM","beers":91},
{"id":"ea30f11d-ab85-4efc-b45f-f3d9cc87925b","name":"Fritsch, D'Amore and Erdman","lat":"47.8599","lon":"-122.2848","state":"Washington","zip":"98206","city":"Everett","address":"03427 Briar Crest Street","hours":"12:47 PM","beers":30},
{"id":"8fe6b3ab-5333-4651-944b-ef3e5c022edf","name":"Kunze-Feil","lat":"47.1441","lon":"-122.4434","state":"Washington","zip":"98447","city":"Tacoma","address":"73 Boyd Alley","hours":"1:10 PM","beers":17},
{"id":"677680f0-c373-471c-93eb-8e4ea23bbeca","name":"Johnston Inc","lat":"47.6339","lon":"-122.3476","state":"Washington","zip":"98109","city":"Seattle","address":"797 Corscot Pass","hours":"6:58 AM","beers":56},
{"id":"22c700d1-f09c-42d5-b992-49b37c30071f","name":"Spinka, Rau and Simonis","lat":"47.6536","lon":"-117.4317","state":"Washington","zip":"99215","city":"Spokane","address":"88077 Armistice Lane","hours":"10:48 AM","beers":3},
{"id":"9e911fef-3758-4246-b3e1-542f3d2afdac","name":"Russel, Buckridge and Shields","lat":"47.6151","lon":"-122.3447","state":"Washington","zip":"98121","city":"Seattle","address":"23272 Summit Road","hours":"5:09 AM","beers":40},
{"id":"e2077c18-c494-4f6a-a561-ccdc38476e3a","name":"Runte LLC","lat":"47.6536","lon":"-117.4317","state":"Washington","zip":"99260","city":"Spokane","address":"8415 Artisan Circle","hours":"3:40 PM","beers":49},
{"id":"f9058275-87db-4c0c-b74f-3f4287fd3e99","name":"Roob, Price and Schowalter","lat":"47.0662","lon":"-122.1132","state":"Washington","zip":"98411","city":"Tacoma","address":"4484 Fordem Drive","hours":"9:41 PM","beers":48},
{"id":"f14cddbe-a032-4109-8bbc-5b9fe6b2ede4","name":"Spinka LLC","lat":"47.2061","lon":"-122.4822","state":"Washington","zip":"98417","city":"Tacoma","address":"444 Monument Center","hours":"10:03 AM","beers":35},
{"id":"fc4ac8f3-5658-4f93-b407-36d7fcee53c4","name":"Hilpert, Larkin and Sporer","lat":"47.4497","lon":"-122.3076","state":"Washington","zip":"98158","city":"Seattle","address":"848 Merry Court","hours":"8:21 AM","beers":37},
{"id":"1c292109-45f3-47c4-8b19-fda1add189e5","name":"Yundt, Grimes and Cummerata","lat":"45.6231","lon":"-122.5767","state":"Washington","zip":"98664","city":"Vancouver","address":"7 Stoughton Court","hours":"12:08 PM","beers":22},
{"id":"8f7e00b2-b8c0-4857-b23e-fdd648bf83d9","name":"Schulist, Schroeder and Swift","lat":"47.8599","lon":"-122.2848","state":"Washington","zip":"98206","city":"Everett","address":"77890 Kensington Circle","hours":"11:43 AM","beers":92},
{"id":"8035c43e-a1e2-4e55-8a20-67700daef6d3","name":"Gibson LLC","lat":"47.6964","lon":"-117.4399","state":"Washington","zip":"99205","city":"Spokane","address":"9 Arizona Place","hours":"5:24 AM","beers":97},
{"id":"f7f9c499-c3ae-49b8-81ec-840420533b3e","name":"O'Reilly Inc","lat":"47.4497","lon":"-122.3076","state":"Washington","zip":"98158","city":"Seattle","address":"7 Pepper Wood Circle","hours":"12:03 PM","beers":96},
{"id":"50f6d4e1-eb85-4ee2-89bc-66c8965d3775","name":"Abshire-Ziemann","lat":"47.2061","lon":"-122.4822","state":"Washington","zip":"98417","city":"Tacoma","address":"9 Fulton Parkway","hours":"9:26 PM","beers":56},
{"id":"0c0f19c5-ab45-4f87-84d2-12fe26ccd918","name":"Gorczany Group","lat":"47.4511","lon":"-122.353","state":"Washington","zip":"98166","city":"Seattle","address":"086 Westerfield Center","hours":"11:13 AM","beers":26},
{"id":"8ca2bf36-c9f6-44af-a87a-356588343526","name":"Mills-Bailey","lat":"47.8599","lon":"-122.2848","state":"Washington","zip":"98206","city":"Everett","address":"514 Hudson Court","hours":"12:32 PM","beers":43},
{"id":"4127c3eb-8799-42e3-97e8-a58444ae1948","name":"Kautzer, Moore and Crooks","lat":"47.8599","lon":"-122.2848","state":"Washington","zip":"98206","city":"Everett","address":"944 Dwight Trail","hours":"11:34 PM","beers":74},
{"id":"d3f5c3ce-e774-4db1-b3c6-79fbee4918b2","name":"O'Connell, Nienow and Howell","lat":"47.2061","lon":"-122.4822","state":"Washington","zip":"98417","city":"Tacoma","address":"63 Del Mar Alley","hours":"7:43 PM","beers":68},
{"id":"4aa5e725-0a22-4bb4-9fdf-57e20b337f3d","name":"Kilback Inc","lat":"47.2484","lon":"-122.4644","state":"Washington","zip":"98405","city":"Tacoma","address":"88 Hudson Drive","hours":"7:45 PM","beers":20},
{"id":"b90b1584-a609-45df-9bc3-13f587e13852","name":"O'Hara and Sons","lat":"47.4323","lon":"-121.8034","state":"Washington","zip":"98140","city":"Seattle","address":"52 Hazelcrest Trail","hours":"2:06 PM","beers":31},
{"id":"004f5561-6417-4441-a596-65fb67d8bab5","name":"Feil, Wilderman and Kozey","lat":"47.1126","lon":"-122.7794","state":"Washington","zip":"98516","city":"Olympia","address":"9521 Anderson Road","hours":"8:25 PM","beers":83},
{"id":"de2a301e-e267-41b8-8fa7-84279831c182","name":"Pagac Inc","lat":"47.2061","lon":"-122.4822","state":"Washington","zip":"98417","city":"Tacoma","address":"44 Lotheville Court","hours":"6:07 AM","beers":69},
{"id":"b78d6e9b-fb91-4460-89a3-2facf793c241","name":"Lehner, Oberbrunner and Dibbert","lat":"46.6288","lon":"-120.574","state":"Washington","zip":"98907","city":"Yakima","address":"17 Almo Terrace","hours":"11:02 AM","beers":1},
{"id":"ce239dc6-245a-446c-8ea2-ec0d46484fd0","name":"Beier-Boyer","lat":"47.6564","lon":"-122.3048","state":"Washington","zip":"98195","city":"Seattle","address":"55 Boyd Point","hours":"8:56 AM","beers":10},
{"id":"634fee8b-42d6-4ce1-ad08-095cd8e4a562","name":"Watsica, Boyle and Macejkovic","lat":"47.4441","lon":"-122.3249","state":"Washington","zip":"98148","city":"Seattle","address":"59020 La Follette Terrace","hours":"2:21 PM","beers":94},
{"id":"51d5193b-aeb8-46be-ab01-2e6f156be56b","name":"Keeling-Daugherty","lat":"47.6536","lon":"-117.4317","state":"Washington","zip":"99215","city":"Spokane","address":"36 Warrior Road","hours":"2:34 PM","beers":86},
{"id":"cd0b33df-1c84-4178-a5f7-5365f841b56b","name":"Goodwin Inc","lat":"47.6536","lon":"-117.4317","state":"Washington","zip":"99215","city":"Spokane","address":"978 Jackson Drive","hours":"8:24 AM","beers":89},
{"id":"5966d5aa-e17e-4485-a23b-940556cd76ba","name":"Hoeger LLC","lat":"47.8599","lon":"-122.2848","state":"Washington","zip":"98206","city":"Everett","address":"319 Randy Point","hours":"9:14 AM","beers":2},
{"id":"2d991733-670c-4afe-9559-922d4db8f01d","name":"Heidenreich, Jacobs and Swift","lat":"45.6231","lon":"-122.5767","state":"Washington","zip":"98664","city":"Vancouver","address":"4573 Shasta Plaza","hours":"1:31 PM","beers":86},
{"id":"12d308c8-836d-4f12-b1b5-84136b320785","name":"Kreiger, Dicki and Metz","lat":"47.6536","lon":"-117.4317","state":"Washington","zip":"99215","city":"Spokane","address":"801 Judy Trail","hours":"11:13 AM","beers":55},
{"id":"8348e25a-4d1e-4f11-95d8-ba883046776f","name":"Johnson and Sons","lat":"47.2325","lon":"-122.3594","state":"Washington","zip":"98424","city":"Tacoma","address":"05410 Stang Circle","hours":"3:41 PM","beers":82},
{"id":"5f808710-8d06-42df-b0e9-991771556cdd","name":"Senger Group","lat":"47.368","lon":"-122.1206","state":"Washington","zip":"98042","city":"Kent","address":"576 Dottie Road","hours":"8:31 PM","beers":42},
{"id":"5112f3f2-7f92-45ee-bfab-aee730f52a34","name":"Bartell-Pacocha","lat":"47.2484","lon":"-122.4644","state":"Washington","zip":"98405","city":"Tacoma","address":"1478 Fisk Way","hours":"2:44 PM","beers":3},
{"id":"68275ffe-c693-4be6-ae83-b562f8fd377e","name":"Stehr, Kreiger and Nolan","lat":"47.6849","lon":"-122.2968","state":"Washington","zip":"98115","city":"Seattle","address":"049 Monterey Parkway","hours":"7:39 PM","beers":57},
{"id":"169349a8-e673-42f5-a36b-8e365ffdfa04","name":"Becker-Wolf","lat":"47.4441","lon":"-122.3249","state":"Washington","zip":"98148","city":"Seattle","address":"06 Beilfuss Crossing","hours":"7:24 AM","beers":17},
{"id":"433e4ddb-bd5b-413d-80e7-2c84a3eace02","name":"Anderson, Leffler and Armstrong","lat":"47.8599","lon":"-122.2848","state":"Washington","zip":"98206","city":"Everett","address":"74 Loftsgordon Lane","hours":"1:13 PM","beers":33},
{"id":"71e18e55-16e8-4c58-b4a1-e8b75d0541d4","name":"Hessel-Turner","lat":"47.1591","lon":"-122.5485","state":"Washington","zip":"98498","city":"Lakewood","address":"1699 New Castle Court","hours":"5:56 PM","beers":25},
{"id":"8fa1064a-0c6a-4827-8768-11381c8b83a9","name":"Macejkovic-Gaylord","lat":"47.1126","lon":"-122.7794","state":"Washington","zip":"98516","city":"Olympia","address":"2695 Merrick Lane","hours":"5:06 PM","beers":59},
{"id":"4512f914-ffda-40f6-8f26-c2f205c2913b","name":"Kertzmann, Watsica and Rau","lat":"47.6564","lon":"-122.3048","state":"Washington","zip":"98195","city":"Seattle","address":"4438 North Trail","hours":"10:09 PM","beers":12},
{"id":"5a1febe9-74f6-4ab9-84b5-27de3f4556c5","name":"Pollich Inc","lat":"47.6849","lon":"-122.2968","state":"Washington","zip":"98115","city":"Seattle","address":"17 Helena Terrace","hours":"6:47 PM","beers":71},
{"id":"e9b370a1-8f5b-446f-9181-d7b57710983e","name":"Rippin-Padberg","lat":"47.6151","lon":"-122.3447","state":"Washington","zip":"98121","city":"Seattle","address":"81199 Maple Wood Parkway","hours":"1:36 PM","beers":48},
{"id":"8bd8a8af-acd5-4666-ae08-42750c36fe45","name":"Beahan-Von","lat":"47.4441","lon":"-122.3249","state":"Washington","zip":"98148","city":"Seattle","address":"35890 Roth Place","hours":"9:57 AM","beers":39},
{"id":"345a344c-74d2-4762-b91a-1168614d7848","name":"Wolf, Kertzmann and Marks","lat":"47.6339","lon":"-122.3476","state":"Washington","zip":"98109","city":"Seattle","address":"82672 Main Center","hours":"12:32 PM","beers":60},
{"id":"635c78b4-b37a-45ba-b985-bf787250936b","name":"Willms, Ankunding and Hegmann","lat":"47.6536","lon":"-117.4317","state":"Washington","zip":"99220","city":"Spokane","address":"410 Declaration Avenue","hours":"9:27 PM","beers":2},
{"id":"13cb7025-3410-42e8-85b8-7ebfc3ef6f6d","name":"Nienow Inc","lat":"45.8016","lon":"-122.5203","state":"Washington","zip":"98687","city":"Vancouver","address":"949 Rigney Crossing","hours":"7:37 PM","beers":97},
{"id":"7ef26a25-5251-46fc-9ec4-be6c4b221e9d","name":"Watsica, Crona and Farrell","lat":"47.6536","lon":"-117.4317","state":"Washington","zip":"99252","city":"Spokane","address":"38 Westport Terrace","hours":"12:51 PM","beers":53},
{"id":"0d7dd162-3d91-45c4-836b-0f030d6f3cc4","name":"Littel, McGlynn and McClure","lat":"47.368","lon":"-122.1206","state":"Washington","zip":"98042","city":"Kent","address":"1137 Ramsey Parkway","hours":"10:51 PM","beers":49},
{"id":"82815cdc-db25-4955-9fdf-f7858afcfd65","name":"Wolff, Quigley and Kohler","lat":"47.6151","lon":"-122.3447","state":"Washington","zip":"98121","city":"Seattle","address":"57442 Stoughton Hill","hours":"4:07 PM","beers":11},
{"id":"1f1fa6aa-ae8c-41e4-937a-e483ad852d9d","name":"Ullrich-Lind","lat":"47.6536","lon":"-117.4317","state":"Washington","zip":"99215","city":"Spokane","address":"15 Division Drive","hours":"8:18 PM","beers":36},
{"id":"9027c4e2-210e-4f3b-91e3-31fd7af37c0e","name":"Walter, Schimmel and Wiegand","lat":"47.6536","lon":"-117.4317","state":"Washington","zip":"99210","city":"Spokane","address":"13 Crowley Court","hours":"6:21 PM","beers":66},
{"id":"94a1c797-3884-437d-9915-29b3c3f76d23","name":"Raynor, Stehr and Pacocha","lat":"47.6536","lon":"-117.4317","state":"Washington","zip":"99210","city":"Spokane","address":"41 Algoma Hill","hours":"1:53 PM","beers":76},
{"id":"f936984e-24b1-45cb-82af-1a236994146e","name":"Schumm Group","lat":"47.6115","lon":"-122.1162","state":"Washington","zip":"98008","city":"Bellevue","address":"13118 Northport Place","hours":"10:18 AM","beers":63},
{"id":"53e7c565-d2f7-4588-a8ac-be5ed1b107f2","name":"Kuhlman Group","lat":"47.0662","lon":"-122.1132","state":"Washington","zip":"98411","city":"Tacoma","address":"13095 Pepper Wood Center","hours":"12:48 PM","beers":5},
{"id":"fad5a27d-56b3-40a8-83b6-11d3306367c2","name":"Lowe, Schumm and Denesik","lat":"45.6644","lon":"-122.5212","state":"Washington","zip":"98682","city":"Vancouver","address":"28159 Sage Alley","hours":"6:58 AM","beers":100},
{"id":"474712d0-79d5-4b71-9395-71316dc31e43","name":"Rodriguez-Swift","lat":"47.1591","lon":"-122.5485","state":"Washington","zip":"98498","city":"Lakewood","address":"2064 Forest Trail","hours":"11:30 AM","beers":46},
{"id":"ffc4ea5d-7971-497b-b1af-5b76a61a8279","name":"Medhurst-Trantow","lat":"47.8599","lon":"-122.2848","state":"Washington","zip":"98206","city":"Everett","address":"1377 Shasta Lane","hours":"6:07 PM","beers":40},
{"id":"860f75b4-b509-4679-acb0-4a1a79533ed1","name":"Mosciski, Fritsch and Kutch","lat":"47.7161","lon":"-122.3004","state":"Washington","zip":"98175","city":"Seattle","address":"91 Gateway Avenue","hours":"3:28 PM","beers":4},
{"id":"63c90745-d18f-423d-bd16-5ca2aed3b2e3","name":"Franecki, Grant and Simonis","lat":"47.4323","lon":"-121.8034","state":"Washington","zip":"98185","city":"Seattle","address":"41 Trailsway Alley","hours":"9:53 PM","beers":56},
{"id":"b41b29e0-308e-4279-bf9c-b8790edd4867","name":"Conroy, Ledner and Konopelski","lat":"45.6644","lon":"-122.5212","state":"Washington","zip":"98682","city":"Vancouver","address":"91778 Meadow Ridge Place","hours":"9:21 PM","beers":68},
{"id":"8c6ce199-0b9f-4df0-bf07-8d90fdc6678d","name":"Streich Group","lat":"47.4323","lon":"-121.8034","state":"Washington","zip":"98185","city":"Seattle","address":"2965 Mcguire Court","hours":"9:28 AM","beers":90},
{"id":"ccfbf84c-47eb-4f62-afa1-6df2dc4888f7","name":"Gottlieb and Sons","lat":"47.2484","lon":"-122.4644","state":"Washington","zip":"98405","city":"Tacoma","address":"54 Kinsman Court","hours":"5:40 PM","beers":88},
{"id":"49797a67-75f2-4519-89ff-841ff0946b63","name":"Lynch and Sons","lat":"47.0662","lon":"-122.1132","state":"Washington","zip":"98411","city":"Tacoma","address":"30983 Homewood Circle","hours":"5:31 PM","beers":18},
{"id":"00ccf518-60f9-4fbf-ad97-905fa7c35710","name":"Gusikowski-Sawayn","lat":"47.6151","lon":"-122.3447","state":"Washington","zip":"98121","city":"Seattle","address":"9947 Chinook Junction","hours":"6:59 PM","beers":7},
{"id":"b67309ed-3e43-4015-8a28-f34d75c93163","name":"Walter-Cormier","lat":"47.2061","lon":"-122.4822","state":"Washington","zip":"98417","city":"Tacoma","address":"111 Goodland Point","hours":"11:32 PM","beers":55},
{"id":"7a3cc556-5cad-4685-9337-a73a9082c251","name":"Schneider-Mayert","lat":"47.8599","lon":"-122.2848","state":"Washington","zip":"98206","city":"Everett","address":"747 Hovde Park","hours":"2:17 PM","beers":96},
{"id":"ec6778b4-4c93-4cdb-8edb-bbaf6470d182","name":"Miller, Lowe and Kertzmann","lat":"47.1126","lon":"-122.7794","state":"Washington","zip":"98516","city":"Olympia","address":"04 Mosinee Parkway","hours":"9:55 AM","beers":97},
{"id":"03e04868-18b5-431a-a384-f4985b92b2a5","name":"Wiza LLC","lat":"47.1042","lon":"-122.87","state":"Washington","zip":"98506","city":"Olympia","address":"24424 Melby Pass","hours":"11:16 PM","beers":58},
{"id":"ba650e02-3bbd-4c41-9d79-6966335f719a","name":"Kub, Block and Hyatt","lat":"47.1441","lon":"-122.4434","state":"Washington","zip":"98447","city":"Tacoma","address":"2 Badeau Place","hours":"10:51 AM","beers":46},
{"id":"7878b58f-e2d3-423e-91b9-5f436107f459","name":"Krajcik and Sons","lat":"47.0662","lon":"-122.1132","state":"Washington","zip":"98464","city":"Tacoma","address":"97997 Westport Plaza","hours":"5:40 PM","beers":75},
{"id":"0c5274b7-bd78-4178-bea1-1fcd28aefeb6","name":"Bashirian LLC","lat":"47.1591","lon":"-122.5485","state":"Washington","zip":"98498","city":"Lakewood","address":"4 Susan Terrace","hours":"7:20 PM","beers":46},
{"id":"7e451593-2ff9-429b-93a1-c8fe353940c0","name":"Crist Inc","lat":"47.6536","lon":"-117.4317","state":"Washington","zip":"99252","city":"Spokane","address":"93 Canary Way","hours":"9:55 AM","beers":87},
{"id":"1937fb31-f780-40ce-bc2a-8c7b803662c7","name":"Haag LLC","lat":"47.4511","lon":"-122.353","state":"Washington","zip":"98166","city":"Seattle","address":"169 Dovetail Center","hours":"4:37 PM","beers":60},
{"id":"fa6da5a7-40c6-4047-bad5-b2b8b4ce4eae","name":"Bailey-Christiansen","lat":"47.6564","lon":"-122.3048","state":"Washington","zip":"98195","city":"Seattle","address":"116 Towne Lane","hours":"7:54 PM","beers":92},
{"id":"2e50a7f2-94de-47da-891b-d8e51e8a76d5","name":"Rau-Dietrich","lat":"45.8016","lon":"-122.5203","state":"Washington","zip":"98687","city":"Vancouver","address":"67673 Anthes Hill","hours":"10:12 AM","beers":27},
{"id":"e68c41c0-a594-4dcd-892a-6ac6304fbd6b","name":"Lehner LLC","lat":"47.4323","lon":"-121.8034","state":"Washington","zip":"98140","city":"Seattle","address":"0444 South Way","hours":"11:21 AM","beers":74},
{"id":"b814d5b0-20ff-4b48-9164-8894650612a9","name":"Padberg, Sporer and Marks","lat":"47.6536","lon":"-117.4317","state":"Washington","zip":"99215","city":"Spokane","address":"43242 Mariners Cove Circle","hours":"3:12 PM","beers":63},
{"id":"5dc9d559-c045-4ef7-bb02-6520518261eb","name":"Wintheiser-Emmerich","lat":"47.6964","lon":"-117.4399","state":"Washington","zip":"99205","city":"Spokane","address":"71 Cottonwood Junction","hours":"1:36 PM","beers":79},
{"id":"782aa807-b2a2-4852-be0b-6aed3fc0b777","name":"Champlin and Sons","lat":"47.0662","lon":"-122.1132","state":"Washington","zip":"98464","city":"Tacoma","address":"6973 Paget Plaza","hours":"5:10 PM","beers":21},
{"id":"12f9305e-e188-47e1-9184-c0c0448cb7c9","name":"Steuber, Botsford and O'Kon","lat":"47.6115","lon":"-122.1162","state":"Washington","zip":"98008","city":"Bellevue","address":"1048 Leroy Parkway","hours":"11:22 PM","beers":31},
{"id":"ea845057-04ee-45ce-9f01-566f5d2ed94b","name":"Rutherford Group","lat":"47.4511","lon":"-122.353","state":"Washington","zip":"98166","city":"Seattle","address":"8 Springs Junction","hours":"12:37 PM","beers":65},
{"id":"039457a5-83a8-4971-8f64-623de5fddea2","name":"Barrows-Fisher","lat":"45.8016","lon":"-122.5203","state":"Washington","zip":"98687","city":"Vancouver","address":"49056 Boyd Pass","hours":"7:50 PM","beers":52},
{"id":"96ef6687-1a25-4ea5-87c2-c7f32bae9c75","name":"Crist, Wolf and Hudson","lat":"45.6644","lon":"-122.5212","state":"Washington","zip":"98682","city":"Vancouver","address":"5089 Thompson Hill","hours":"10:40 PM","beers":60},
{"id":"7c81b658-b127-4124-846e-05c10b60182b","name":"Ryan Inc","lat":"47.1441","lon":"-122.4434","state":"Washington","zip":"98447","city":"Tacoma","address":"8299 Commercial Terrace","hours":"8:23 AM","beers":70},
{"id":"cd455fd2-8310-410e-b9b9-fdf21c1e6f31","name":"Daniel LLC","lat":"47.4511","lon":"-122.353","state":"Washington","zip":"98166","city":"Seattle","address":"0 Reinke Circle","hours":"10:02 AM","beers":14},
{"id":"6e0662aa-c60b-4227-a1a8-e622d724e09d","name":"Koelpin-Witting","lat":"47.6536","lon":"-117.4317","state":"Washington","zip":"99220","city":"Spokane","address":"7889 Petterle Alley","hours":"11:18 AM","beers":39},
{"id":"12881cba-14e3-4f92-91c2-65066d629958","name":"Simonis-Nikolaus","lat":"47.6036","lon":"-122.3256","state":"Washington","zip":"98104","city":"Seattle","address":"808 Colorado Alley","hours":"5:28 PM","beers":14},
{"id":"9a10de64-3e5d-439a-a0aa-e0b850bdde63","name":"Upton-Gusikowski","lat":"47.1591","lon":"-122.5485","state":"Washington","zip":"98498","city":"Lakewood","address":"071 Darwin Avenue","hours":"2:53 PM","beers":35},
{"id":"f30acd3e-415e-49a4-ba2d-711725474efe","name":"Steuber, Schuster and Bradtke","lat":"47.6063","lon":"-122.3308","state":"Washington","zip":"98127","city":"Seattle","address":"81565 Shelley Street","hours":"12:48 PM","beers":88},
{"id":"b1d67e4b-00ce-4849-8995-b0837550d7cf","name":"Windler-Considine","lat":"47.6063","lon":"-122.3308","state":"Washington","zip":"98127","city":"Seattle","address":"9 Vera Lane","hours":"2:21 PM","beers":40},
{"id":"ed2e5d54-0cf3-4979-9b40-2264ef7684f7","name":"Bode, Kuhlman and Schaden","lat":"47.2061","lon":"-122.4822","state":"Washington","zip":"98417","city":"Tacoma","address":"0 Maple Drive","hours":"8:17 AM","beers":9},
{"id":"1bd81173-3ad4-4ed6-9c6b-a8ab8d401b7c","name":"Berge-Marks","lat":"47.1591","lon":"-122.5485","state":"Washington","zip":"98498","city":"Lakewood","address":"2502 Banding Drive","hours":"3:00 PM","beers":64},
{"id":"4c7775d3-4974-49be-83af-2143d1067991","name":"DuBuque, Hayes and Armstrong","lat":"47.4323","lon":"-121.8034","state":"Washington","zip":"98185","city":"Seattle","address":"46 John Wall Junction","hours":"1:11 PM","beers":58},
{"id":"a2b6fa81-69a2-472e-96fe-50559ee12def","name":"Klein-Beier","lat":"47.7377","lon":"-122.3431","state":"Washington","zip":"98133","city":"Seattle","address":"24 Morning Hill","hours":"4:39 PM","beers":64},
{"id":"ca682755-9b23-48e2-bb42-a1521148cc70","name":"Gleason, Haag and Gutmann","lat":"47.6536","lon":"-117.4317","state":"Washington","zip":"99220","city":"Spokane","address":"7 Erie Hill","hours":"12:44 PM","beers":96},
{"id":"29b51307-c0fa-47ea-a8e9-ef21fbd17534","name":"Baumbach-Lemke","lat":"47.2484","lon":"-122.4644","state":"Washington","zip":"98405","city":"Tacoma","address":"423 Basil Court","hours":"10:22 AM","beers":35},
{"id":"1a76f504-0024-4ea0-a4c6-dcf0bc62f46d","name":"Kilback-Wisoky","lat":"47.2061","lon":"-122.4822","state":"Washington","zip":"98417","city":"Tacoma","address":"111 Banding Trail","hours":"10:55 AM","beers":63},
{"id":"c95c11ec-9571-4a6c-8d3d-394f0213ec79","name":"Effertz Group","lat":"47.2484","lon":"-122.4644","state":"Washington","zip":"98405","city":"Tacoma","address":"39641 Pleasure Trail","hours":"3:59 PM","beers":48},
{"id":"6ce9a5aa-ab99-43fe-aa1a-4f5bfccaada8","name":"Jones, Tremblay and Weber","lat":"47.6536","lon":"-117.4317","state":"Washington","zip":"99215","city":"Spokane","address":"56134 Bobwhite Plaza","hours":"7:09 PM","beers":11},
{"id":"e94ea491-58b4-45fc-bbef-bcd25e84cce9","name":"Rodriguez, Bosco and Bayer","lat":"47.7377","lon":"-122.3431","state":"Washington","zip":"98133","city":"Seattle","address":"52 Hoffman Trail","hours":"2:19 PM","beers":51},
{"id":"b9b8fdf8-6fd0-45e4-a6f3-4da1e60ea8c4","name":"Pfannerstill Inc","lat":"47.6536","lon":"-117.4317","state":"Washington","zip":"99260","city":"Spokane","address":"83 Scoville Hill","hours":"9:58 PM","beers":42},
{"id":"304997dc-a93f-46f8-badb-771f27f558ee","name":"Abernathy Group","lat":"47.6849","lon":"-122.2968","state":"Washington","zip":"98115","city":"Seattle","address":"5293 Swallow Road","hours":"8:09 AM","beers":57},
{"id":"d1ed8695-94d2-46f1-bc0c-d575f63cd3b4","name":"Mitchell-Cummerata","lat":"47.368","lon":"-122.1206","state":"Washington","zip":"98042","city":"Kent","address":"6862 Village Way","hours":"9:37 PM","beers":33},
{"id":"e35becbd-8e94-4add-ad7d-50571ca38bc1","name":"Price-Raynor","lat":"47.6036","lon":"-122.3256","state":"Washington","zip":"98104","city":"Seattle","address":"30 Glacier Hill Avenue","hours":"8:02 PM","beers":49},
{"id":"cca75cd2-8b60-4b4f-847e-c81af205e263","name":"O'Hara-Zemlak","lat":"47.1126","lon":"-122.7794","state":"Washington","zip":"98516","city":"Olympia","address":"5 Northview Hill","hours":"10:22 PM","beers":39},
{"id":"5246c4c4-eb2b-447d-9992-25dc0c809402","name":"Hermann, Abernathy and Schaefer","lat":"47.0662","lon":"-122.1132","state":"Washington","zip":"98411","city":"Tacoma","address":"97 Randy Street","hours":"8:31 PM","beers":55},
{"id":"b811948f-d256-472e-9fa7-199737e502d6","name":"Schinner-Bruen","lat":"47.6151","lon":"-122.3447","state":"Washington","zip":"98121","city":"Seattle","address":"8303 Lerdahl Drive","hours":"9:23 PM","beers":49},
{"id":"d6cf21ee-ec07-47e7-a156-039408b46f6c","name":"Anderson-Rau","lat":"47.1441","lon":"-122.4434","state":"Washington","zip":"98447","city":"Tacoma","address":"81463 Delladonna Junction","hours":"11:43 AM","beers":67},
{"id":"bd5c8331-84f7-4325-9777-a82d598ff3a6","name":"Mohr, Reynolds and Harvey","lat":"47.1126","lon":"-122.7794","state":"Washington","zip":"98516","city":"Olympia","address":"283 Heffernan Terrace","hours":"12:17 PM","beers":49},
{"id":"46204839-1548-44f4-a90d-4e802b91893d","name":"Paucek Inc","lat":"47.7161","lon":"-122.3004","state":"Washington","zip":"98175","city":"Seattle","address":"67 Menomonie Crossing","hours":"1:19 PM","beers":14},
{"id":"ee96f46d-d591-45f0-aab5-8f09f50811de","name":"Nitzsche LLC","lat":"47.1042","lon":"-122.87","state":"Washington","zip":"98506","city":"Olympia","address":"523 Karstens Place","hours":"1:45 PM","beers":84},
{"id":"76faa3f3-ef2e-42c0-94b3-fa9cc6c6d273","name":"Gerlach LLC","lat":"47.4323","lon":"-121.8034","state":"Washington","zip":"98140","city":"Seattle","address":"07833 Mosinee Terrace","hours":"5:24 PM","beers":21},
{"id":"15997d2a-d649-48c5-9300-6ae329751472","name":"Cummings, Hagenes and Stark","lat":"47.1042","lon":"-122.87","state":"Washington","zip":"98506","city":"Olympia","address":"03017 Jenna Hill","hours":"12:36 PM","beers":56},
{"id":"1f65a79d-108e-4e12-95b0-1aa591fc2c6b","name":"Stokes, Jacobi and Kling","lat":"47.6849","lon":"-122.2968","state":"Washington","zip":"98115","city":"Seattle","address":"597 Cardinal Terrace","hours":"2:38 PM","beers":89},
{"id":"35112f19-eda0-4621-8015-bb27b68df8e1","name":"Gutkowski Inc","lat":"47.1441","lon":"-122.4434","state":"Washington","zip":"98447","city":"Tacoma","address":"65 Stoughton Avenue","hours":"11:35 PM","beers":16},
{"id":"a7d1c976-0ad5-4ff5-a4d7-bf4d9da88710","name":"Gorczany Inc","lat":"46.6288","lon":"-120.574","state":"Washington","zip":"98907","city":"Yakima","address":"6 Schmedeman Trail","hours":"8:33 AM","beers":44},
{"id":"cb57e117-0814-4f9d-80ab-8ffde5bdb1f4","name":"Kuhic LLC","lat":"47.6536","lon":"-117.4317","state":"Washington","zip":"99252","city":"Spokane","address":"5 Towne Way","hours":"5:09 PM","beers":99},
{"id":"63316d43-1654-41e0-8976-77c2df5fc336","name":"Lemke, Brekke and Jast","lat":"47.0662","lon":"-122.1132","state":"Washington","zip":"98411","city":"Tacoma","address":"98 Bartelt Park","hours":"9:48 AM","beers":73},
{"id":"77c40524-b08d-4ac6-ac46-eaaa8320e853","name":"Steuber-Balistreri","lat":"47.368","lon":"-122.1206","state":"Washington","zip":"98042","city":"Kent","address":"0561 Pierstorff Avenue","hours":"8:01 AM","beers":49},
{"id":"5ab2a22a-8c64-4d32-a006-cfb3a862a3b8","name":"Jaskolski Group","lat":"47.0662","lon":"-122.1132","state":"Washington","zip":"98411","city":"Tacoma","address":"117 Continental Parkway","hours":"10:44 PM","beers":26},
{"id":"60aeb0c9-2a2f-4348-9916-b628cf72730b","name":"Watsica-Kshlerin","lat":"47.4441","lon":"-122.3249","state":"Washington","zip":"98148","city":"Seattle","address":"22 Mendota Avenue","hours":"11:46 PM","beers":38},
{"id":"84fdb49b-a74c-4b15-a2d1-a58f1163320e","name":"Predovic Inc","lat":"47.6151","lon":"-122.3447","state":"Washington","zip":"98121","city":"Seattle","address":"4 Holy Cross Center","hours":"10:41 AM","beers":50},
{"id":"70abd0cb-b10e-4cf3-aaa9-c0e3facdb784","name":"Schmeler-Renner","lat":"47.6964","lon":"-117.4399","state":"Washington","zip":"99205","city":"Spokane","address":"581 Mariners Cove Crossing","hours":"8:42 AM","beers":25},
{"id":"9f72ed85-6a3c-49e4-b693-1786f0b20699","name":"Heaney Group","lat":"47.7161","lon":"-122.3004","state":"Washington","zip":"98175","city":"Seattle","address":"05 Hovde Point","hours":"5:06 AM","beers":86},
{"id":"8492e838-5edd-461b-a94d-74171014fe24","name":"Hamill, Hayes and Okuneva","lat":"47.6036","lon":"-122.3256","state":"Washington","zip":"98104","city":"Seattle","address":"44193 Goodland Drive","hours":"5:08 PM","beers":58},
{"id":"db6cca2b-49d9-4dc6-8833-254fe60f9b7d","name":"Kshlerin and Sons","lat":"47.6564","lon":"-122.3048","state":"Washington","zip":"98195","city":"Seattle","address":"9475 Fuller Center","hours":"6:11 PM","beers":88},
{"id":"40e06c5b-fd5a-491c-ab0a-8dbf16af6280","name":"Baumbach Group","lat":"47.6964","lon":"-117.4399","state":"Washington","zip":"99205","city":"Spokane","address":"70 Bultman Hill","hours":"9:04 AM","beers":38},
{"id":"2f14c57f-82bd-4f00-b6c4-91f90900958a","name":"Schinner-Hickle","lat":"45.8016","lon":"-122.5203","state":"Washington","zip":"98687","city":"Vancouver","address":"1 Homewood Way","hours":"7:06 PM","beers":80},
{"id":"25ebaa0e-e352-41dd-98ca-c0125315bfb0","name":"Osinski Inc","lat":"45.6231","lon":"-122.5767","state":"Washington","zip":"98664","city":"Vancouver","address":"3 Macpherson Park","hours":"4:44 PM","beers":80},
{"id":"6119d5ac-7261-4a34-bf9b-2d241db1c695","name":"Boyer LLC","lat":"47.2484","lon":"-122.4644","state":"Washington","zip":"98405","city":"Tacoma","address":"9 Westport Pass","hours":"2:08 PM","beers":58},
{"id":"e63cef1d-3b1b-452b-bb25-a2456f77c1ea","name":"Russel, Runolfsson and Abbott","lat":"47.1042","lon":"-122.87","state":"Washington","zip":"98506","city":"Olympia","address":"32007 Mccormick Road","hours":"10:07 PM","beers":76},
{"id":"bd21e7ef-9c22-4409-a6f7-59cbb72ecd7d","name":"Stamm, Torphy and Gleason","lat":"47.4441","lon":"-122.3249","state":"Washington","zip":"98148","city":"Seattle","address":"673 Warbler Terrace","hours":"12:31 PM","beers":43},
{"id":"50854162-7df5-40e7-b6dc-46709a753d9a","name":"Parisian LLC","lat":"47.1591","lon":"-122.5485","state":"Washington","zip":"98498","city":"Lakewood","address":"096 Crescent Oaks Junction","hours":"11:22 PM","beers":56},
{"id":"edbdc8d8-f939-48ad-b6e7-01657ed192c5","name":"Mohr, Muller and Mills","lat":"47.6036","lon":"-122.3256","state":"Washington","zip":"98104","city":"Seattle","address":"419 Hazelcrest Road","hours":"11:54 PM","beers":35},
{"id":"289cb893-65cc-4f65-adcd-4d987c8aa1cd","name":"Lakin and Sons","lat":"47.1591","lon":"-122.5485","state":"Washington","zip":"98498","city":"Lakewood","address":"161 Oriole Place","hours":"5:27 PM","beers":22},
{"id":"a6c29222-20a0-4203-9de7-1dedcfbad7a5","name":"Feil-Johnson","lat":"47.6536","lon":"-117.4317","state":"Washington","zip":"99215","city":"Spokane","address":"25899 Fallview Road","hours":"7:29 PM","beers":16},
{"id":"e1938b16-437f-4cb1-a706-7cb755d44724","name":"Roberts-Jones","lat":"47.7161","lon":"-122.3004","state":"Washington","zip":"98175","city":"Seattle","address":"6 American Terrace","hours":"6:23 AM","beers":47},
{"id":"3af67c7b-31d4-4203-addb-b53fc8090c8c","name":"West, Becker and Hayes","lat":"47.3081","lon":"-122.4185","state":"Washington","zip":"98442","city":"Tacoma","address":"910 Buhler Terrace","hours":"11:29 AM","beers":45},
{"id":"4920ea55-2daa-472f-8592-61fb9ac637bf","name":"Klocko-Kris","lat":"47.7161","lon":"-122.3004","state":"Washington","zip":"98175","city":"Seattle","address":"558 Morningstar Street","hours":"5:41 AM","beers":48},
{"id":"fa9426e4-b098-4106-b3f7-95fe13e44923","name":"Skiles, Walker and Auer","lat":"47.2325","lon":"-122.3594","state":"Washington","zip":"98424","city":"Tacoma","address":"00815 Springs Avenue","hours":"7:04 PM","beers":6},
{"id":"504358ff-12ff-473a-8667-644540763789","name":"Will-Dach","lat":"47.4323","lon":"-121.8034","state":"Washington","zip":"98185","city":"Seattle","address":"16044 Bunker Hill Circle","hours":"1:21 PM","beers":29},
{"id":"3ff70c66-a13f-43c3-8bb7-e48694c2351f","name":"Johns-Heller","lat":"47.6063","lon":"-122.3308","state":"Washington","zip":"98127","city":"Seattle","address":"303 Loftsgordon Drive","hours":"4:28 PM","beers":82},
{"id":"2ec9e673-d324-4ab0-9d77-849d8f1ad191","name":"Vandervort-Spencer","lat":"47.2484","lon":"-122.4644","state":"Washington","zip":"98405","city":"Tacoma","address":"801 Pawling Way","hours":"4:35 PM","beers":59},
{"id":"462dfff2-88b0-4d5a-b412-93eead0683f7","name":"Koelpin Inc","lat":"47.4497","lon":"-122.3076","state":"Washington","zip":"98158","city":"Seattle","address":"3136 Melody Park","hours":"1:57 PM","beers":20},
{"id":"014896cb-ee31-4b5f-9a6b-2f2c9b9e50ea","name":"Feil LLC","lat":"47.6564","lon":"-122.3048","state":"Washington","zip":"98195","city":"Seattle","address":"5616 Reindahl Circle","hours":"11:21 AM","beers":41},
{"id":"6c62986b-67b0-42cb-9b10-551e575b3ff7","name":"Schmidt-Reichel","lat":"47.0662","lon":"-122.1132","state":"Washington","zip":"98464","city":"Tacoma","address":"8492 Springs Lane","hours":"10:22 PM","beers":39},
{"id":"f563be16-13b4-4bcd-bae5-15163d022306","name":"Murazik Group","lat":"47.1591","lon":"-122.5485","state":"Washington","zip":"98498","city":"Lakewood","address":"199 Mockingbird Drive","hours":"9:18 AM","beers":1},
{"id":"8029149d-1ee9-4cad-9cd7-436aab080702","name":"Reinger-Hessel","lat":"47.6536","lon":"-117.4317","state":"Washington","zip":"99252","city":"Spokane","address":"2218 Charing Cross Lane","hours":"9:11 PM","beers":34},
{"id":"04452596-86bd-45a1-9ad3-9588bd48a3d3","name":"Crist, Hane and Marquardt","lat":"47.7377","lon":"-122.3431","state":"Washington","zip":"98133","city":"Seattle","address":"49631 Atwood Alley","hours":"6:58 AM","beers":70},
{"id":"697663ed-6689-4767-900b-d34cdedee68d","name":"Tillman Inc","lat":"47.2061","lon":"-122.4822","state":"Washington","zip":"98417","city":"Tacoma","address":"447 Cordelia Park","hours":"2:04 PM","beers":62},
{"id":"8b0991b6-95cb-486b-83ea-2dafbd1a26a5","name":"Schowalter Group","lat":"47.6339","lon":"-122.3476","state":"Washington","zip":"98109","city":"Seattle","address":"61 Caliangt Hill","hours":"6:22 AM","beers":86},
{"id":"3435bd4b-9927-406f-9ebc-19486b455ad7","name":"Sipes Inc","lat":"47.6536","lon":"-117.4317","state":"Washington","zip":"99252","city":"Spokane","address":"9070 Sugar Park","hours":"3:01 PM","beers":30},
{"id":"ca724ad9-198c-49a7-ba67-e8e47e78a674","name":"Rempel and Sons","lat":"47.6036","lon":"-122.3256","state":"Washington","zip":"98104","city":"Seattle","address":"892 Sutteridge Place","hours":"6:14 AM","beers":23},
{"id":"29ba04d7-74aa-474a-9a85-532364ba5298","name":"DuBuque LLC","lat":"47.6964","lon":"-117.4399","state":"Washington","zip":"99205","city":"Spokane","address":"9 Heath Drive","hours":"4:02 PM","beers":79},
{"id":"907c1bc1-bca1-4858-b6da-fa986a37efb6","name":"Bailey-Leuschke","lat":"47.8599","lon":"-122.2848","state":"Washington","zip":"98206","city":"Everett","address":"22681 American Street","hours":"12:55 PM","beers":45},
{"id":"319f0dbf-9d75-423c-8516-bc6bc22ed49f","name":"Sawayn and Sons","lat":"47.1441","lon":"-122.4434","state":"Washington","zip":"98447","city":"Tacoma","address":"32 Holy Cross Point","hours":"5:38 PM","beers":31},
{"id":"e9369b35-7b95-4bdc-b83d-a02d6ac143af","name":"Abshire and Sons","lat":"47.6063","lon":"-122.3308","state":"Washington","zip":"98127","city":"Seattle","address":"208 Green Terrace","hours":"7:18 AM","beers":62},
{"id":"065da373-c4c2-48be-87f1-d28b5409c575","name":"Harber LLC","lat":"47.3081","lon":"-122.4185","state":"Washington","zip":"98442","city":"Tacoma","address":"9 Redwing Parkway","hours":"12:15 PM","beers":75},
{"id":"3f2cb6bf-4adf-4730-a714-c90a772a90eb","name":"Runolfsson, Bergnaum and Kub","lat":"47.4323","lon":"-121.8034","state":"Washington","zip":"98185","city":"Seattle","address":"46011 Charing Cross Way","hours":"10:13 PM","beers":47},
{"id":"7ebb8644-4eac-4b76-910c-7a3c2dad69a7","name":"D'Amore-Kohler","lat":"47.4497","lon":"-122.3076","state":"Washington","zip":"98158","city":"Seattle","address":"77497 Stephen Plaza","hours":"10:25 PM","beers":32},
{"id":"a05c1115-e5e8-4d71-982c-63051724cedf","name":"Champlin Inc","lat":"47.6964","lon":"-117.4399","state":"Washington","zip":"99205","city":"Spokane","address":"6758 Forest Run Road","hours":"3:19 PM","beers":91},
{"id":"dbb7495b-4822-46c3-a06f-e07caee49e95","name":"Hagenes LLC","lat":"47.6536","lon":"-117.4317","state":"Washington","zip":"99260","city":"Spokane","address":"48 Green Court","hours":"3:06 PM","beers":55},
{"id":"0047d688-5259-47b0-b16a-c60ef992a614","name":"Hagenes Inc","lat":"47.2325","lon":"-122.3594","state":"Washington","zip":"98424","city":"Tacoma","address":"2750 Longview Court","hours":"2:00 PM","beers":62},
{"id":"2eece5b4-b860-424a-9ab9-c8b791d59c6e","name":"Haley-Rau","lat":"47.6564","lon":"-122.3048","state":"Washington","zip":"98195","city":"Seattle","address":"623 Hintze Avenue","hours":"11:41 AM","beers":6},
{"id":"84a43f9d-8f40-44b1-a5c6-2348ee3e65f4","name":"Bradtke-Hoeger","lat":"47.6063","lon":"-122.3308","state":"Washington","zip":"98127","city":"Seattle","address":"391 Mayfield Street","hours":"3:19 PM","beers":2},
{"id":"0792706d-0a4c-493a-9142-fa6f896ba13d","name":"Dooley-Funk","lat":"47.7161","lon":"-122.3004","state":"Washington","zip":"98175","city":"Seattle","address":"18 Anniversary Drive","hours":"11:31 PM","beers":4},
{"id":"e8e536d5-e74c-46de-918b-6a05565aad8e","name":"Bogan LLC","lat":"47.4323","lon":"-121.8034","state":"Washington","zip":"98185","city":"Seattle","address":"48450 Manitowish Road","hours":"4:17 PM","beers":77}]